{"adi adda":{"city":"adi adda","accentcity":"Adi Adda","region":"01","population":null,"latitude":"11.1333333","longitude":"42.8858333"},"airolaf":{"city":"airolaf","accentcity":"Airolaf","region":"05","population":null,"latitude":"11.7702778","longitude":"42.6519444"},"airoli":{"city":"airoli","accentcity":"Airoli","region":"02","population":null,"latitude":"11.0036111","longitude":"42.1025"},"alaili dadda`":{"city":"alaili dadda`","accentcity":"Alaili Dadda`","region":"04","population":null,"latitude":"12.4216667","longitude":"42.8955556"},"alayli dadda`":{"city":"alayli dadda`","accentcity":"Alayli Dadda`","region":"04","population":null,"latitude":"12.4216667","longitude":"42.8955556"},"ali ada":{"city":"ali ada","accentcity":"Ali Ada","region":"01","population":null,"latitude":"11.1333333","longitude":"42.8858333"},"ali adda":{"city":"ali adda","accentcity":"Ali Adda","region":"01","population":null,"latitude":"11.1333333","longitude":"42.8858333"},"ali adda courant":{"city":"ali adda courant","accentcity":"Ali Adda Courant","region":"01","population":null,"latitude":"11.1333333","longitude":"42.8858333"},"`ali `adde":{"city":"`ali `adde","accentcity":"`Ali `Addé","region":"01","population":null,"latitude":"11.1333333","longitude":"42.8858333"},"aliadh":{"city":"aliadh","accentcity":"Aliadh","region":"01","population":null,"latitude":"11.1333333","longitude":"42.8858333"},"ali sabie":{"city":"ali sabie","accentcity":"Ali Sabiè","region":"01","population":null,"latitude":"11.1558333","longitude":"42.7125"},"`ali sabieh":{"city":"`ali sabieh","accentcity":"`Ali Sabieh","region":"01","population":null,"latitude":"11.1558333","longitude":"42.7125"},"ali sabiet":{"city":"ali sabiet","accentcity":"Ali Sabiet","region":"01","population":null,"latitude":"11.1558333","longitude":"42.7125"},"`ali sabih":{"city":"`ali sabih","accentcity":"`Ali Sabih","region":"01","population":null,"latitude":"11.1558333","longitude":"42.7125"},"ambabbo":{"city":"ambabbo","accentcity":"Ambabbo","region":"05","population":null,"latitude":"11.7511111","longitude":"42.8144444"},"amboua":{"city":"amboua","accentcity":"Amboua","region":"03","population":null,"latitude":"11.5694444","longitude":"43.1366667"},"ambouli":{"city":"ambouli","accentcity":"Ambouli","region":"03","population":null,"latitude":"11.5694444","longitude":"43.1366667"},"ambua":{"city":"ambua","accentcity":"Ambua","region":"03","population":null,"latitude":"11.5694444","longitude":"43.1366667"},"angarou":{"city":"angarou","accentcity":"Angârou","region":"04","population":null,"latitude":"12.3866667","longitude":"43.3347222"},"anghar":{"city":"anghar","accentcity":"Anghar","region":"04","population":null,"latitude":"12.3866667","longitude":"43.3347222"},"`arta":{"city":"`arta","accentcity":"`Arta","region":"08","population":null,"latitude":"11.5222222","longitude":"42.8419444"},"`as `ela":{"city":"`as `ela","accentcity":"`As `Êla","region":"02","population":null,"latitude":"11.0036111","longitude":"42.1025"},"assa-ela":{"city":"assa-ela","accentcity":"Assa-ela","region":"02","population":null,"latitude":"11.0036111","longitude":"42.1025"},"`assa gaila":{"city":"`assa gaila","accentcity":"`Assa Gaïla","region":"05","population":null,"latitude":"12.1916667","longitude":"42.6416667"},"ass'eyla":{"city":"ass'eyla","accentcity":"Ass'èyla","region":"02","population":null,"latitude":"11.0036111","longitude":"42.1025"},"balho":{"city":"balho","accentcity":"Balho","region":"05","population":null,"latitude":"12.0583333","longitude":"42.1955556"},"bankouale":{"city":"bankouale","accentcity":"Bankoualé","region":"05","population":null,"latitude":"11.8227778","longitude":"42.6736111"},"bankouwale":{"city":"bankouwale","accentcity":"Bankouwâle","region":"05","population":null,"latitude":"11.8227778","longitude":"42.6736111"},"bissidiro":{"city":"bissidiro","accentcity":"Bissîdiro","region":"04","population":null,"latitude":"12.645","longitude":"42.9733333"},"boul'aos":{"city":"boul'aos","accentcity":"Boûl'aos","region":"03","population":null,"latitude":"11.5833333","longitude":"43.15"},"boulaos camp":{"city":"boulaos camp","accentcity":"Boulaos Camp","region":"03","population":null,"latitude":"11.5833333","longitude":"43.15"},"boulas":{"city":"boulas","accentcity":"Boulas","region":"03","population":null,"latitude":"11.5833333","longitude":"43.15"},"boul`aws":{"city":"boul`aws","accentcity":"Boûl`aws","region":"03","population":null,"latitude":"11.5833333","longitude":"43.15"},"bulaos":{"city":"bulaos","accentcity":"Bulaos","region":"03","population":null,"latitude":"11.5833333","longitude":"43.15"},"camp boulaos":{"city":"camp boulaos","accentcity":"Camp Boulaos","region":"03","population":null,"latitude":"11.5833333","longitude":"43.15"},"dadda`to":{"city":"dadda`to","accentcity":"Dadda`to","region":"04","population":null,"latitude":"12.3727778","longitude":"42.7113889"},"damerdjog":{"city":"damerdjog","accentcity":"Damêrdjôg","region":"03","population":null,"latitude":"11.4855556","longitude":"43.1872222"},"danan":{"city":"danan","accentcity":"Danan","region":"01","population":null,"latitude":"11.1833333","longitude":"42.9333333"},"dicchil":{"city":"dicchil","accentcity":"Dicchil","region":"06","population":null,"latitude":"11.1086111","longitude":"42.3738889"},"digri":{"city":"digri","accentcity":"Digri","region":"01","population":null,"latitude":"11.2975","longitude":"42.8533333"},"dikhil":{"city":"dikhil","accentcity":"Dikhil","region":"06","population":null,"latitude":"11.1086111","longitude":"42.3738889"},"dikil":{"city":"dikil","accentcity":"Dikil","region":"06","population":null,"latitude":"11.1086111","longitude":"42.3738889"},"dikkil":{"city":"dikkil","accentcity":"Dikkil","region":"06","population":null,"latitude":"11.1086111","longitude":"42.3738889"},"dikri":{"city":"dikri","accentcity":"Dikri","region":"01","population":null,"latitude":"11.2975","longitude":"42.8533333"},"djibouti":{"city":"djibouti","accentcity":"Djibouti","region":"03","population":null,"latitude":"11.595","longitude":"43.1480556"},"djibuti":{"city":"djibuti","accentcity":"Djibuti","region":"03","population":null,"latitude":"11.595","longitude":"43.1480556"},"dorra":{"city":"dorra","accentcity":"Dorra","region":"05","population":null,"latitude":"12.1494444","longitude":"42.4775"},"gaherre":{"city":"gaherre","accentcity":"Gaherré","region":"04","population":null,"latitude":"12.2869444","longitude":"43.3555556"},"galafi":{"city":"galafi","accentcity":"Gâlâfi","region":"02","population":null,"latitude":"11.7158333","longitude":"41.8361111"},"gibuti":{"city":"gibuti","accentcity":"Gibuti","region":"03","population":null,"latitude":"11.595","longitude":"43.1480556"},"goubatto":{"city":"goubatto","accentcity":"Goubatto","region":"01","population":null,"latitude":"11.4238889","longitude":"43.0002778"},"goubeto":{"city":"goubeto","accentcity":"Goubéto","region":"01","population":null,"latitude":"11.4166667","longitude":"42.9833333"},"goubeto station":{"city":"goubeto station","accentcity":"Goubeto Station","region":"01","population":null,"latitude":"11.4166667","longitude":"42.9833333"},"goubetto":{"city":"goubetto","accentcity":"Goubétto","region":"01","population":null,"latitude":"11.4238889","longitude":"43.0002778"},"hayyou":{"city":"hayyou","accentcity":"Hayyou","region":"04","population":null,"latitude":"11.9630556","longitude":"43.2905556"},"hi±oumbouli":{"city":"hi±oumbouli","accentcity":"HÌ±oumbouli","region":"03","population":null,"latitude":"11.5694444","longitude":"43.1366667"},"holhol":{"city":"holhol","accentcity":"Holhol","region":"01","population":null,"latitude":"11.3102778","longitude":"42.9294444"},"hol holl":{"city":"hol holl","accentcity":"Hol Holl","region":"01","population":null,"latitude":"11.3102778","longitude":"42.9294444"},"holl-holl":{"city":"holl-holl","accentcity":"Holl-Holl","region":"01","population":null,"latitude":"11.3102778","longitude":"42.9294444"},"jibouti":{"city":"jibouti","accentcity":"Jibouti","region":"03","population":null,"latitude":"11.595","longitude":"43.1480556"},"jibuti":{"city":"jibuti","accentcity":"Jibuti","region":"03","population":"623891","latitude":"11.595","longitude":"43.1480556"},"khor `angar":{"city":"khor `angar","accentcity":"Khôr `Angar","region":"04","population":null,"latitude":"12.3866667","longitude":"43.3347222"},"khor-anghar":{"city":"khor-anghar","accentcity":"Khor-Anghar","region":"04","population":null,"latitude":"12.3866667","longitude":"43.3347222"},"kouta bouyya":{"city":"kouta bouyya","accentcity":"Koûta Boûyya","region":"02","population":null,"latitude":"11.0161111","longitude":"41.9619444"},"la`assa":{"city":"la`assa","accentcity":"Lâ`assa","region":"04","population":null,"latitude":"12.3558333","longitude":"43.1563889"},"la plaine":{"city":"la plaine","accentcity":"La Plaine","region":"03","population":null,"latitude":"11.6","longitude":"43.15"},"la-waada":{"city":"la-waada","accentcity":"La-waada","region":"03","population":null,"latitude":"11.4611111","longitude":"43.2527778"},"loya ada":{"city":"loya ada","accentcity":"Loya Ada","region":"03","population":null,"latitude":"11.4611111","longitude":"43.2527778"},"loyada":{"city":"loyada","accentcity":"Loyada","region":"03","population":null,"latitude":"11.4611111","longitude":"43.2527778"},"loyi ada":{"city":"loyi ada","accentcity":"Loyi Ada","region":"03","population":null,"latitude":"11.4611111","longitude":"43.2527778"},"medeho":{"city":"medeho","accentcity":"Médého","region":"04","population":null,"latitude":"11.9730556","longitude":"43.0261111"},"mee doho":{"city":"mee doho","accentcity":"Méé Dôho","region":"04","population":null,"latitude":"11.9730556","longitude":"43.0261111"},"mouddo":{"city":"mouddo","accentcity":"Mouddo","region":"05","population":null,"latitude":"12.3","longitude":"42.4333333"},"moulhoule":{"city":"moulhoule","accentcity":"Moulhoulé","region":"04","population":null,"latitude":"12.5916667","longitude":"43.2"},"obock":{"city":"obock","accentcity":"Obock","region":"04","population":null,"latitude":"11.9630556","longitude":"43.2905556"},"obok":{"city":"obok","accentcity":"Obok","region":"04","population":null,"latitude":"11.9630556","longitude":"43.2905556"},"oue`a":{"city":"oue`a","accentcity":"Ouê`a","region":"05","population":null,"latitude":"11.6905556","longitude":"42.6866667"},"poste d' anghor":{"city":"poste d' anghor","accentcity":"Poste d' Anghor","region":"04","population":null,"latitude":"12.3866667","longitude":"43.3347222"},"randa":{"city":"randa","accentcity":"Randa","region":"05","population":null,"latitude":"11.8469444","longitude":"42.6605556"},"sedorre":{"city":"sedorre","accentcity":"Sêdorre","region":"04","population":null,"latitude":"12.3633333","longitude":"43.1891667"},"tadjoura":{"city":"tadjoura","accentcity":"Tadjoura","region":"05","population":null,"latitude":"11.7852778","longitude":"42.8844444"},"tadjura":{"city":"tadjura","accentcity":"Tadjura","region":"05","population":null,"latitude":"11.7852778","longitude":"42.8844444"},"tagiura":{"city":"tagiura","accentcity":"Tagiura","region":"05","population":null,"latitude":"11.7852778","longitude":"42.8844444"},"tajura":{"city":"tajura","accentcity":"Tajura","region":"05","population":null,"latitude":"11.7852778","longitude":"42.8844444"},"teoao":{"city":"teoao","accentcity":"Teoao","region":"02","population":null,"latitude":"11.4383333","longitude":"42.0572222"},"tewao":{"city":"tewao","accentcity":"Tewao","region":"02","population":null,"latitude":"11.4383333","longitude":"42.0572222"},"tew`o":{"city":"tew`o","accentcity":"Tew`o","region":"02","population":null,"latitude":"11.4383333","longitude":"42.0572222"},"we`a":{"city":"we`a","accentcity":"Wê`a","region":"05","population":null,"latitude":"11.6905556","longitude":"42.6866667"},"yoboki":{"city":"yoboki","accentcity":"Yoboki","region":"02","population":null,"latitude":"11.5113889","longitude":"42.1063889"}}