{"a":{"city":"a","accentcity":"Å","region":"21","population":null,"latitude":"55.216667","longitude":"9.983333"},"aa":{"city":"aa","accentcity":"Aa","region":"21","population":null,"latitude":"55.216667","longitude":"9.983333"},"aabenraa":{"city":"aabenraa","accentcity":"Aabenraa","region":"21","population":"16344","latitude":"55.033333","longitude":"9.433333"},"aabjaerg":{"city":"aabjaerg","accentcity":"Aabjærg","region":"21","population":null,"latitude":"55.5","longitude":"10"},"aabjerg":{"city":"aabjerg","accentcity":"Aabjerg","region":"21","population":null,"latitude":"55.5","longitude":"10"},"aabo":{"city":"aabo","accentcity":"Aabo","region":"18","population":null,"latitude":"56.116667","longitude":"10.05"},"aabol":{"city":"aabol","accentcity":"Aabøl","region":"21","population":null,"latitude":"55.233333","longitude":"9.133333"},"aaby":{"city":"aaby","accentcity":"Aaby","region":"19","population":null,"latitude":"57.166667","longitude":"9.75"},"aabybro":{"city":"aabybro","accentcity":"Aabybro","region":"19","population":"4849","latitude":"57.15","longitude":"9.75"},"aabyhoj":{"city":"aabyhoj","accentcity":"Aabyhöj","region":"18","population":null,"latitude":"56.15","longitude":"10.166667"},"aabyskov":{"city":"aabyskov","accentcity":"Aabyskov","region":"21","population":null,"latitude":"55.066667","longitude":"10.75"},"aadal":{"city":"aadal","accentcity":"Aadal","region":"21","population":null,"latitude":"55.816667","longitude":"9.466667"},"aaderup":{"city":"aaderup","accentcity":"Aaderup","region":"20","population":null,"latitude":"55.216667","longitude":"11.766667"},"aagaard":{"city":"aagaard","accentcity":"Aagaard","region":"21","population":null,"latitude":"55.583333","longitude":"9.433333"},"aageby":{"city":"aageby","accentcity":"Aageby","region":"20","population":null,"latitude":"54.75","longitude":"11.3"},"aagerup":{"city":"aagerup","accentcity":"Aagerup","region":"20","population":null,"latitude":"55.483333","longitude":"11.916667"},"aa hojrup":{"city":"aa hojrup","accentcity":"Aa Höjrup","region":"21","population":null,"latitude":"55.5","longitude":"9.983333"},"aakaer":{"city":"aakaer","accentcity":"Aakær","region":"18","population":null,"latitude":"56.466667","longitude":"9"},"aakirkeby":{"city":"aakirkeby","accentcity":"Aakirkeby","region":"17","population":"2195","latitude":"55.066667","longitude":"14.933333"},"aakjaer":{"city":"aakjaer","accentcity":"Aakjær","region":"18","population":null,"latitude":"56.466667","longitude":"9"},"aalbaek":{"city":"aalbaek","accentcity":"Aalbæk","region":"21","population":null,"latitude":"55.483333","longitude":"8.65"},"aalborg":{"city":"aalborg","accentcity":"Aalborg","region":"19","population":"122219","latitude":"57.05","longitude":"9.933333"},"aale":{"city":"aale","accentcity":"Aale","region":"19","population":null,"latitude":"56.883333","longitude":"9.233333"},"aalebaek":{"city":"aalebaek","accentcity":"Aalebæk","region":"20","population":null,"latitude":"55","longitude":"12.466667"},"aalebaek huse":{"city":"aalebaek huse","accentcity":"Aalebæk Huse","region":"19","population":null,"latitude":"57.016667","longitude":"10.266667"},"aaleskov":{"city":"aaleskov","accentcity":"Aaleskov","region":"18","population":null,"latitude":"56.5","longitude":"8.783333"},"aalestrup":{"city":"aalestrup","accentcity":"Aalestrup","region":"19","population":"2787","latitude":"56.7","longitude":"9.5"},"aalkaer":{"city":"aalkaer","accentcity":"Aalkær","region":"21","population":null,"latitude":"55.25","longitude":"9.116667"},"aalling":{"city":"aalling","accentcity":"Aalling","region":"21","population":null,"latitude":"55.733333","longitude":"8.75"},"aalokke":{"city":"aalokke","accentcity":"Aalökke","region":"21","population":null,"latitude":"55.333333","longitude":"10.716667"},"aalose":{"city":"aalose","accentcity":"Aaløse","region":"17","population":null,"latitude":"55.133333","longitude":"14.966667"},"aalsbo":{"city":"aalsbo","accentcity":"Aalsbo","region":"21","population":null,"latitude":"55.416667","longitude":"10.016667"},"aalsgaard":{"city":"aalsgaard","accentcity":"Aalsgaard","region":"17","population":null,"latitude":"56.083333","longitude":"12.55"},"aalsgaarde":{"city":"aalsgaarde","accentcity":"Aalsgaarde","region":"17","population":null,"latitude":"56.083333","longitude":"12.55"},"aalso":{"city":"aalso","accentcity":"Aalsö","region":"18","population":null,"latitude":"56.366667","longitude":"10.85"},"aalsrode":{"city":"aalsrode","accentcity":"Aalsrode","region":"18","population":null,"latitude":"56.35","longitude":"10.866667"},"aalstrup":{"city":"aalstrup","accentcity":"Aalstrup","region":"19","population":null,"latitude":"57.283333","longitude":"10.016667"},"aalum":{"city":"aalum","accentcity":"Aalum","region":"18","population":null,"latitude":"56.45","longitude":"9.85"},"aalykke":{"city":"aalykke","accentcity":"Aalykke","region":"21","population":null,"latitude":"55.333333","longitude":"10.716667"},"aanum":{"city":"aanum","accentcity":"Aanum","region":"18","population":null,"latitude":"55.95","longitude":"8.55"},"aarbjaerg":{"city":"aarbjaerg","accentcity":"Aarbjærg","region":"19","population":null,"latitude":"56.75","longitude":"8.533333"},"aarbjerg":{"city":"aarbjerg","accentcity":"Aarbjerg","region":"19","population":null,"latitude":"56.75","longitude":"8.533333"},"aarby":{"city":"aarby","accentcity":"Aarby","region":"20","population":null,"latitude":"55.65","longitude":"11.15"},"aarestrup":{"city":"aarestrup","accentcity":"Aarestrup","region":"19","population":null,"latitude":"56.816667","longitude":"9.75"},"aargab":{"city":"aargab","accentcity":"Aargab","region":"18","population":null,"latitude":"55.966667","longitude":"8.15"},"aarhus":{"city":"aarhus","accentcity":"Aarhus","region":"18","population":null,"latitude":"56.15","longitude":"10.216667"},"aarlose":{"city":"aarlose","accentcity":"Aarløse","region":"20","population":null,"latitude":"55.383333","longitude":"12"},"aaro by":{"city":"aaro by","accentcity":"Aarö By","region":"21","population":null,"latitude":"55.266667","longitude":"9.75"},"aarosund":{"city":"aarosund","accentcity":"Aarösund","region":"21","population":null,"latitude":"55.25","longitude":"9.716667"},"aarre":{"city":"aarre","accentcity":"Aarre","region":"21","population":null,"latitude":"55.566667","longitude":"8.666667"},"aars":{"city":"aars","accentcity":"Aars","region":"19","population":"7247","latitude":"56.8","longitude":"9.533333"},"aarsballe":{"city":"aarsballe","accentcity":"Aarsballe","region":"17","population":null,"latitude":"55.15","longitude":"14.883333"},"aarsdale":{"city":"aarsdale","accentcity":"Aarsdale","region":"17","population":null,"latitude":"55.1","longitude":"15.15"},"aarslev":{"city":"aarslev","accentcity":"Aarslev","region":"21","population":null,"latitude":"55.033333","longitude":"9.35"},"aarup":{"city":"aarup","accentcity":"Aarup","region":"21","population":"2592","latitude":"55.383333","longitude":"10.066667"},"aas":{"city":"aas","accentcity":"Aas","region":"20","population":null,"latitude":"55.3","longitude":"12.1"},"aase":{"city":"aase","accentcity":"Aase","region":"20","population":null,"latitude":"55.366667","longitude":"11.7"},"aasebro":{"city":"aasebro","accentcity":"Aasebro","region":"17","population":null,"latitude":"55.983333","longitude":"12.016667"},"aasebro huse":{"city":"aasebro huse","accentcity":"Aasebro Huse","region":"17","population":null,"latitude":"55.983333","longitude":"12.016667"},"aasendrup":{"city":"aasendrup","accentcity":"Aasendrup","region":"19","population":null,"latitude":"57.366667","longitude":"9.75"},"aashoj":{"city":"aashoj","accentcity":"Aashöj","region":"20","population":null,"latitude":"55.433333","longitude":"12.133333"},"aashoje":{"city":"aashoje","accentcity":"Aashöje","region":"20","population":null,"latitude":"55.433333","longitude":"12.133333"},"aaside":{"city":"aaside","accentcity":"Aaside","region":"20","population":null,"latitude":"55.166667","longitude":"11.916667"},"aaso":{"city":"aaso","accentcity":"Aasö","region":"21","population":null,"latitude":"55.016667","longitude":"10.833333"},"aaspe":{"city":"aaspe","accentcity":"Aaspe","region":"21","population":null,"latitude":"55.05","longitude":"8.833333"},"aast":{"city":"aast","accentcity":"Aast","region":"21","population":null,"latitude":"55.733333","longitude":"9.216667"},"aasted":{"city":"aasted","accentcity":"Aasted","region":"21","population":null,"latitude":"55.766667","longitude":"8.416667"},"aasted bro":{"city":"aasted bro","accentcity":"Aasted Bro","region":"18","population":null,"latitude":"55.9","longitude":"9.616667"},"aastofte":{"city":"aastofte","accentcity":"Aastofte","region":"20","population":null,"latitude":"55.816667","longitude":"11.533333"},"aastorp":{"city":"aastorp","accentcity":"Aastorp","region":"21","population":null,"latitude":"55.4","longitude":"9.516667"},"aastrup":{"city":"aastrup","accentcity":"Aastrup","region":"21","population":null,"latitude":"55.066667","longitude":"10.35"},"aasum":{"city":"aasum","accentcity":"Aasum","region":"21","population":null,"latitude":"55.4","longitude":"10.466667"},"aaved":{"city":"aaved","accentcity":"Aaved","region":"21","population":null,"latitude":"55.183333","longitude":"8.833333"},"abaek":{"city":"abaek","accentcity":"Åbæk","region":"21","population":null,"latitude":"55.05","longitude":"9.483333"},"abbenaes":{"city":"abbenaes","accentcity":"Abbenæs","region":"20","population":null,"latitude":"55.2","longitude":"11.75"},"abbetved":{"city":"abbetved","accentcity":"Abbetved","region":"20","population":null,"latitude":"55.633333","longitude":"11.916667"},"abed":{"city":"abed","accentcity":"Abed","region":"20","population":null,"latitude":"54.833333","longitude":"11.333333"},"abenra":{"city":"abenra","accentcity":"Åbenrå","region":"21","population":null,"latitude":"55.033333","longitude":"9.433333"},"abildaa":{"city":"abildaa","accentcity":"Abildaa","region":"18","population":null,"latitude":"56.166667","longitude":"8.616667"},"abilda":{"city":"abilda","accentcity":"Abildå","region":"18","population":null,"latitude":"56.166667","longitude":"8.616667"},"abild":{"city":"abild","accentcity":"Abild","region":"21","population":null,"latitude":"54.966667","longitude":"8.866667"},"abildgaarde":{"city":"abildgaarde","accentcity":"Abildgaarde","region":"19","population":null,"latitude":"56.916667","longitude":"9.733333"},"abildgarde":{"city":"abildgarde","accentcity":"Abildgårde","region":"19","population":null,"latitude":"56.916667","longitude":"9.733333"},"abildholt":{"city":"abildholt","accentcity":"Abildholt","region":"18","population":null,"latitude":"56.366667","longitude":"8.9"},"abildore":{"city":"abildore","accentcity":"Abildøre","region":"20","population":null,"latitude":"55.833333","longitude":"11.683333"},"abildskov":{"city":"abildskov","accentcity":"Abildskov","region":"21","population":null,"latitude":"55.25","longitude":"10.183333"},"abildtorpe":{"city":"abildtorpe","accentcity":"Abildtorpe","region":"20","population":null,"latitude":"54.85","longitude":"11.15"},"abjerg":{"city":"abjerg","accentcity":"Åbjerg","region":"21","population":null,"latitude":"55.5","longitude":"10"},"abkaer":{"city":"abkaer","accentcity":"Abkær","region":"21","population":null,"latitude":"55.166667","longitude":"9.333333"},"abling":{"city":"abling","accentcity":"Åbling","region":"18","population":null,"latitude":"55.816667","longitude":"8.3"},"abo":{"city":"abo","accentcity":"Åbo","region":"18","population":null,"latitude":"56.116667","longitude":"10.05"},"abol":{"city":"abol","accentcity":"Åbøl","region":"21","population":null,"latitude":"55.233333","longitude":"9.133333"},"aborg":{"city":"aborg","accentcity":"Aborg","region":"21","population":null,"latitude":"55.3","longitude":"9.916667"},"aborre":{"city":"aborre","accentcity":"Aborre","region":"21","population":null,"latitude":"55.3","longitude":"9.916667"},"abterp":{"city":"abterp","accentcity":"Abterp","region":"21","population":null,"latitude":"55.083333","longitude":"8.783333"},"aby":{"city":"aby","accentcity":"Åby","region":"19","population":null,"latitude":"57.166667","longitude":"9.75"},"abybro":{"city":"abybro","accentcity":"Åbybro","region":"19","population":null,"latitude":"57.15","longitude":"9.75"},"abyen":{"city":"abyen","accentcity":"Åbyen","region":"19","population":null,"latitude":"57.55","longitude":"10.016667"},"abyhoj":{"city":"abyhoj","accentcity":"Åbyhøj","region":"18","population":null,"latitude":"56.15","longitude":"10.166667"},"abyskov":{"city":"abyskov","accentcity":"Åbyskov","region":"21","population":null,"latitude":"55.066667","longitude":"10.75"},"adal":{"city":"adal","accentcity":"Ådal","region":"21","population":null,"latitude":"55.5","longitude":"8.383333"},"addit":{"city":"addit","accentcity":"Addit","region":"18","population":null,"latitude":"56.033333","longitude":"9.616667"},"adelvad":{"city":"adelvad","accentcity":"Adelvad","region":"21","population":null,"latitude":"54.983333","longitude":"9"},"aderup":{"city":"aderup","accentcity":"Åderup","region":"20","population":null,"latitude":"55.216667","longitude":"11.766667"},"adsbol":{"city":"adsbol","accentcity":"Adsbøl","region":"21","population":null,"latitude":"54.933333","longitude":"9.633333"},"adserballe":{"city":"adserballe","accentcity":"Adserballe","region":"21","population":null,"latitude":"54.966667","longitude":"9.966667"},"adslev":{"city":"adslev","accentcity":"Adslev","region":"18","population":null,"latitude":"56.1","longitude":"10"},"adum":{"city":"adum","accentcity":"Ådum","region":"18","population":null,"latitude":"55.866667","longitude":"8.6"},"adum kirkeby":{"city":"adum kirkeby","accentcity":"Ådum Kirkeby","region":"18","population":null,"latitude":"55.866667","longitude":"8.6"},"aebelnaes":{"city":"aebelnaes","accentcity":"Æbelnæs","region":"20","population":null,"latitude":"54.95","longitude":"12.233333"},"aebeltoft":{"city":"aebeltoft","accentcity":"Æbeltoft","region":"18","population":null,"latitude":"56.2","longitude":"10.683333"},"aeroskiobing":{"city":"aeroskiobing","accentcity":"Æroskiobing","region":"21","population":null,"latitude":"54.883333","longitude":"10.416667"},"aeroskjobing":{"city":"aeroskjobing","accentcity":"Æröskjöbing","region":"21","population":null,"latitude":"54.883333","longitude":"10.416667"},"aeroskobing":{"city":"aeroskobing","accentcity":"Ærøskøbing","region":"21","population":null,"latitude":"54.883333","longitude":"10.416667"},"aertbolle":{"city":"aertbolle","accentcity":"Ærtbölle","region":"19","population":null,"latitude":"56.816667","longitude":"9.183333"},"agard":{"city":"agard","accentcity":"Ågård","region":"21","population":null,"latitude":"55.583333","longitude":"9.433333"},"agdrup kaer":{"city":"agdrup kaer","accentcity":"Agdrup Kær","region":"19","population":null,"latitude":"57.116667","longitude":"9.966667"},"ageby":{"city":"ageby","accentcity":"Ågeby","region":"20","population":null,"latitude":"54.75","longitude":"11.3"},"agedrup":{"city":"agedrup","accentcity":"Agedrup","region":"21","population":null,"latitude":"55.416667","longitude":"10.5"},"ager":{"city":"ager","accentcity":"Ager","region":"19","population":null,"latitude":"56.783333","longitude":"8.25"},"agerbaek":{"city":"agerbaek","accentcity":"Agerbæk","region":"21","population":null,"latitude":"55.6","longitude":"8.8"},"agerfeld":{"city":"agerfeld","accentcity":"Agerfeld","region":"18","population":null,"latitude":"56.25","longitude":"8.616667"},"agerkrog":{"city":"agerkrog","accentcity":"Agerkrog","region":"21","population":null,"latitude":"55.716667","longitude":"8.6"},"agernaes":{"city":"agernaes","accentcity":"Agernæs","region":"21","population":null,"latitude":"55.583333","longitude":"10.35"},"agero":{"city":"agero","accentcity":"Agerø","region":"19","population":null,"latitude":"56.716667","longitude":"8.583333"},"agersbaek":{"city":"agersbaek","accentcity":"Agersbæk","region":"18","population":null,"latitude":"56.15","longitude":"8.266667"},"agersborg":{"city":"agersborg","accentcity":"Agersborg","region":"19","population":null,"latitude":"57","longitude":"9.266667"},"agerskov":{"city":"agerskov","accentcity":"Agerskov","region":"21","population":null,"latitude":"55.116667","longitude":"9.133333"},"agerskov hede":{"city":"agerskov hede","accentcity":"Agerskov Hede","region":"18","population":null,"latitude":"56.25","longitude":"9.2"},"agersnap":{"city":"agersnap","accentcity":"Agersnap","region":"21","population":null,"latitude":"55.8","longitude":"8.683333"},"agerso":{"city":"agerso","accentcity":"Agersø","region":"20","population":null,"latitude":"55.216667","longitude":"11.2"},"agerso by":{"city":"agerso by","accentcity":"Agersø By","region":"20","population":null,"latitude":"55.216667","longitude":"11.2"},"agersted":{"city":"agersted","accentcity":"Agersted","region":"19","population":null,"latitude":"57.2","longitude":"10.383333"},"agersund":{"city":"agersund","accentcity":"Agersund","region":"19","population":null,"latitude":"57","longitude":"9.3"},"agerup":{"city":"agerup","accentcity":"Agerup","region":"20","population":null,"latitude":"55.25","longitude":"11.6"},"agestrup":{"city":"agestrup","accentcity":"Agestrup","region":"18","population":null,"latitude":"55.916667","longitude":"10"},"agger":{"city":"agger","accentcity":"Agger","region":"19","population":null,"latitude":"56.783333","longitude":"8.25"},"aggersborg":{"city":"aggersborg","accentcity":"Aggersborg","region":"19","population":null,"latitude":"57","longitude":"9.266667"},"aggersborg torup":{"city":"aggersborg torup","accentcity":"Aggersborg Torup","region":"19","population":null,"latitude":"57","longitude":"9.25"},"aggersund":{"city":"aggersund","accentcity":"Aggersund","region":"19","population":null,"latitude":"57","longitude":"9.3"},"aggestrup":{"city":"aggestrup","accentcity":"Aggestrup","region":"18","population":null,"latitude":"55.916667","longitude":"10"},"agri":{"city":"agri","accentcity":"Agri","region":"18","population":null,"latitude":"56.233333","longitude":"10.533333"},"agtrup":{"city":"agtrup","accentcity":"Agtrup","region":"21","population":null,"latitude":"55.466667","longitude":"9.566667"},"agtrupskov":{"city":"agtrupskov","accentcity":"Agtrupskov","region":"21","population":null,"latitude":"55.483333","longitude":"9.566667"},"ahl":{"city":"ahl","accentcity":"Ahl","region":"18","population":null,"latitude":"56.166667","longitude":"10.65"},"a-hojrup":{"city":"a-hojrup","accentcity":"Å-Højrup","region":"21","population":null,"latitude":"55.5","longitude":"9.983333"},"aidt":{"city":"aidt","accentcity":"Aidt","region":"18","population":null,"latitude":"56.316667","longitude":"9.8"},"aistrup":{"city":"aistrup","accentcity":"Aistrup","region":"19","population":null,"latitude":"56.95","longitude":"9.516667"},"ajdt":{"city":"ajdt","accentcity":"Ajdt","region":"18","population":null,"latitude":"56.316667","longitude":"9.8"},"ajstrup":{"city":"ajstrup","accentcity":"Ajstrup","region":"19","population":null,"latitude":"56.683333","longitude":"10.166667"},"ajstruphede":{"city":"ajstruphede","accentcity":"Ajstruphede","region":"19","population":null,"latitude":"57.166667","longitude":"10"},"ajstrup hedehuse":{"city":"ajstrup hedehuse","accentcity":"Ajstrup Hedehuse","region":"19","population":null,"latitude":"57.166667","longitude":"10"},"ajstrup strand":{"city":"ajstrup strand","accentcity":"Ajstrup Strand","region":"18","population":null,"latitude":"56.05","longitude":"10.266667"},"ajt":{"city":"ajt","accentcity":"Ajt","region":"18","population":null,"latitude":"56.316667","longitude":"9.8"},"akaer":{"city":"akaer","accentcity":"Åkær","region":"18","population":null,"latitude":"56.466667","longitude":"9"},"akirkeby":{"city":"akirkeby","accentcity":"Åkirkeby","region":"17","population":null,"latitude":"55.066667","longitude":"14.933333"},"akkerup":{"city":"akkerup","accentcity":"Akkerup","region":"21","population":null,"latitude":"55.233333","longitude":"10.15"},"akselholm":{"city":"akselholm","accentcity":"Akselholm","region":"20","population":null,"latitude":"55.65","longitude":"11.4"},"al":{"city":"al","accentcity":"Ål","region":"18","population":null,"latitude":"56.5","longitude":"8.816667"},"albaek":{"city":"albaek","accentcity":"Ålbæk","region":"21","population":null,"latitude":"55.483333","longitude":"8.65"},"albaek hede":{"city":"albaek hede","accentcity":"Albæk Hede","region":"18","population":null,"latitude":"56","longitude":"8.8"},"albertslund":{"city":"albertslund","accentcity":"Albertslund","region":"17","population":null,"latitude":"55.65","longitude":"12.35"},"albjaerg":{"city":"albjaerg","accentcity":"Albjærg","region":"21","population":null,"latitude":"55.133333","longitude":"10.733333"},"albjerg":{"city":"albjerg","accentcity":"Albjerg","region":"21","population":null,"latitude":"55.133333","longitude":"10.733333"},"alboge":{"city":"alboge","accentcity":"Albøge","region":"18","population":null,"latitude":"56.366667","longitude":"10.716667"},"alborg":{"city":"alborg","accentcity":"Ålborg","region":"19","population":null,"latitude":"57.05","longitude":"9.933333"},"alderslyst":{"city":"alderslyst","accentcity":"Alderslyst","region":"18","population":null,"latitude":"56.183333","longitude":"9.566667"},"ale":{"city":"ale","accentcity":"Åle","region":"19","population":null,"latitude":"56.883333","longitude":"9.233333"},"alebaek":{"city":"alebaek","accentcity":"Ålebæk","region":"20","population":null,"latitude":"55","longitude":"12.466667"},"alerne":{"city":"alerne","accentcity":"Ålerne","region":"18","population":null,"latitude":"56.166667","longitude":"10.65"},"alestrup":{"city":"alestrup","accentcity":"Ålestrup","region":"19","population":null,"latitude":"56.7","longitude":"9.5"},"algestrup":{"city":"algestrup","accentcity":"Algestrup","region":"20","population":null,"latitude":"54.866667","longitude":"12"},"alholm":{"city":"alholm","accentcity":"Alholm","region":"20","population":null,"latitude":"54.65","longitude":"11.716667"},"alkaer":{"city":"alkaer","accentcity":"Ålkær","region":"21","population":null,"latitude":"55.25","longitude":"9.116667"},"alkaersig":{"city":"alkaersig","accentcity":"Alkærsig","region":"18","population":null,"latitude":"55.983333","longitude":"8.483333"},"alken":{"city":"alken","accentcity":"Alken","region":"18","population":null,"latitude":"56.05","longitude":"9.85"},"alkestrup":{"city":"alkestrup","accentcity":"Alkestrup","region":"20","population":null,"latitude":"55.383333","longitude":"12.083333"},"alkjaersig":{"city":"alkjaersig","accentcity":"Alkjærsig","region":"18","population":null,"latitude":"55.983333","longitude":"8.483333"},"alle":{"city":"alle","accentcity":"Alle","region":"18","population":null,"latitude":"56.133333","longitude":"8.733333"},"allelev":{"city":"allelev","accentcity":"Allelev","region":"18","population":null,"latitude":"56.383333","longitude":"10.766667"},"aller":{"city":"aller","accentcity":"Aller","region":"21","population":null,"latitude":"55.35","longitude":"9.533333"},"allerod":{"city":"allerod","accentcity":"Allerød","region":"17","population":null,"latitude":"55.866667","longitude":"12.383333"},"allerslev":{"city":"allerslev","accentcity":"Allerslev","region":"21","population":null,"latitude":"55.716667","longitude":"8.366667"},"allerup":{"city":"allerup","accentcity":"Allerup","region":"21","population":null,"latitude":"55.183333","longitude":"9.016667"},"allerup torup":{"city":"allerup torup","accentcity":"Allerup Torup","region":"21","population":null,"latitude":"55.333333","longitude":"10.5"},"allese":{"city":"allese","accentcity":"Allese","region":"21","population":null,"latitude":"55.45","longitude":"10.333333"},"alleshave":{"city":"alleshave","accentcity":"Alleshave","region":"20","population":null,"latitude":"55.716667","longitude":"11.25"},"alleso":{"city":"alleso","accentcity":"Allesø","region":"21","population":null,"latitude":"55.45","longitude":"10.333333"},"allested":{"city":"allested","accentcity":"Allested","region":"21","population":null,"latitude":"55.266667","longitude":"10.35"},"allestrup":{"city":"allestrup","accentcity":"Allestrup","region":"18","population":null,"latitude":"56.466667","longitude":"10.4"},"allindelille":{"city":"allindelille","accentcity":"Allindelille","region":"20","population":null,"latitude":"55.516667","longitude":"11.766667"},"allindemagle":{"city":"allindemagle","accentcity":"Allindemagle","region":"20","population":null,"latitude":"55.5","longitude":"11.733333"},"allingaabro":{"city":"allingaabro","accentcity":"Allingaabro","region":"18","population":null,"latitude":"56.466667","longitude":"10.333333"},"allingabro":{"city":"allingabro","accentcity":"Allingåbro","region":"18","population":"1842","latitude":"56.466667","longitude":"10.333333"},"alling":{"city":"alling","accentcity":"Ålling","region":"21","population":null,"latitude":"55.733333","longitude":"8.75"},"allingdam":{"city":"allingdam","accentcity":"Allingdam","region":"19","population":null,"latitude":"57.55","longitude":"10.033333"},"allinge":{"city":"allinge","accentcity":"Allinge","region":"17","population":null,"latitude":"55.266667","longitude":"14.816667"},"alme":{"city":"alme","accentcity":"Alme","region":"17","population":null,"latitude":"56.083333","longitude":"12.266667"},"almind":{"city":"almind","accentcity":"Almind","region":"21","population":null,"latitude":"55.566667","longitude":"9.5"},"alminde":{"city":"alminde","accentcity":"Alminde","region":"20","population":null,"latitude":"54.75","longitude":"11.266667"},"almind hede":{"city":"almind hede","accentcity":"Almind Hede","region":"21","population":null,"latitude":"55.55","longitude":"9.466667"},"almsted":{"city":"almsted","accentcity":"Almsted","region":"21","population":null,"latitude":"54.966667","longitude":"9.95"},"almstofte":{"city":"almstofte","accentcity":"Almstofte","region":"20","population":null,"latitude":"55.366667","longitude":"11.833333"},"almstok":{"city":"almstok","accentcity":"Almstok","region":"21","population":null,"latitude":"55.683333","longitude":"9.133333"},"almstrup":{"city":"almstrup","accentcity":"Almstrup","region":"21","population":null,"latitude":"54.95","longitude":"9.3"},"almtoft":{"city":"almtoft","accentcity":"Almtoft","region":"18","population":null,"latitude":"56.283333","longitude":"9.45"},"alnor":{"city":"alnor","accentcity":"Alnor","region":"21","population":null,"latitude":"54.916667","longitude":"9.6"},"alokke":{"city":"alokke","accentcity":"Åløkke","region":"21","population":null,"latitude":"55.333333","longitude":"10.716667"},"alose":{"city":"alose","accentcity":"Åløse","region":"17","population":null,"latitude":"55.133333","longitude":"14.966667"},"alro by":{"city":"alro by","accentcity":"Alrø By","region":"18","population":null,"latitude":"55.866667","longitude":"10.083333"},"alrum":{"city":"alrum","accentcity":"Alrum","region":"18","population":null,"latitude":"56.183333","longitude":"8.233333"},"als":{"city":"als","accentcity":"Als","region":"19","population":null,"latitude":"56.75","longitude":"10.3"},"alsbjaerg":{"city":"alsbjaerg","accentcity":"Alsbjærg","region":"19","population":null,"latitude":"57.05","longitude":"9.45"},"alsbjerg":{"city":"alsbjerg","accentcity":"Alsbjerg","region":"19","population":null,"latitude":"57.05","longitude":"9.45"},"alsbo":{"city":"alsbo","accentcity":"Ålsbo","region":"21","population":null,"latitude":"55.416667","longitude":"10.016667"},"als brohuse":{"city":"als brohuse","accentcity":"Als Brohuse","region":"19","population":null,"latitude":"56.75","longitude":"10.233333"},"alsgarde":{"city":"alsgarde","accentcity":"Ålsgårde","region":"17","population":null,"latitude":"56.083333","longitude":"12.55"},"als hede":{"city":"als hede","accentcity":"Als Hede","region":"19","population":null,"latitude":"56.766667","longitude":"10.233333"},"alskov":{"city":"alskov","accentcity":"Ålskov","region":"18","population":null,"latitude":"56.5","longitude":"8.783333"},"alslev":{"city":"alslev","accentcity":"Alslev","region":"21","population":null,"latitude":"55.016667","longitude":"9.3"},"alslev kro":{"city":"alslev kro","accentcity":"Alslev Kro","region":"21","population":null,"latitude":"55.033333","longitude":"9.033333"},"also":{"city":"also","accentcity":"Alsø","region":"20","population":null,"latitude":"54.716667","longitude":"11.566667"},"alsonderup":{"city":"alsonderup","accentcity":"Alsønderup","region":"17","population":null,"latitude":"55.966667","longitude":"12.233333"},"alsrode":{"city":"alsrode","accentcity":"Ålsrode","region":"18","population":null,"latitude":"56.35","longitude":"10.866667"},"alsted":{"city":"alsted","accentcity":"Alsted","region":"20","population":null,"latitude":"55.4","longitude":"11.683333"},"alsted-flinterup":{"city":"alsted-flinterup","accentcity":"Alsted-Flinterup","region":"20","population":null,"latitude":"55.416667","longitude":"11.683333"},"alstrup":{"city":"alstrup","accentcity":"Alstrup","region":"20","population":null,"latitude":"54.883333","longitude":"11.783333"},"altona":{"city":"altona","accentcity":"Altona","region":"19","population":null,"latitude":"57.583333","longitude":"10.266667"},"alum":{"city":"alum","accentcity":"Ålum","region":"18","population":null,"latitude":"56.45","longitude":"9.85"},"alume":{"city":"alume","accentcity":"Alume","region":"17","population":null,"latitude":"56.083333","longitude":"12.266667"},"alverslev":{"city":"alverslev","accentcity":"Alverslev","region":"20","population":null,"latitude":"55.083333","longitude":"12.05"},"amagerbro":{"city":"amagerbro","accentcity":"Amagerbro","region":"17","population":null,"latitude":"55.666667","longitude":"12.583333"},"amager faelled":{"city":"amager faelled","accentcity":"Amager Fælled","region":"17","population":null,"latitude":"55.65","longitude":"12.583333"},"ambaek":{"city":"ambaek","accentcity":"Ambæk","region":"20","population":null,"latitude":"55.116667","longitude":"12.1"},"ammelhede":{"city":"ammelhede","accentcity":"Ammelhede","region":"18","population":null,"latitude":"56.433333","longitude":"10.216667"},"ammendrup":{"city":"ammendrup","accentcity":"Ammendrup","region":"20","population":null,"latitude":"55.083333","longitude":"12.033333"},"ammerup":{"city":"ammerup","accentcity":"Ammerup","region":"20","population":null,"latitude":"55.35","longitude":"12.266667"},"ammesbol":{"city":"ammesbol","accentcity":"Ammesböl","region":"21","population":null,"latitude":"55.65","longitude":"9.416667"},"ammitsbol":{"city":"ammitsbol","accentcity":"Ammitsbøl","region":"21","population":null,"latitude":"55.65","longitude":"9.416667"},"amstrup":{"city":"amstrup","accentcity":"Amstrup","region":"18","population":null,"latitude":"55.883333","longitude":"10.133333"},"amtoft":{"city":"amtoft","accentcity":"Amtoft","region":"19","population":null,"latitude":"57","longitude":"8.95"},"anbaek":{"city":"anbaek","accentcity":"Anbæk","region":"18","population":null,"latitude":"56.233333","longitude":"9.866667"},"andaks":{"city":"andaks","accentcity":"Andaks","region":"20","population":null,"latitude":"55.683333","longitude":"11.166667"},"andebolle":{"city":"andebolle","accentcity":"Andebølle","region":"21","population":null,"latitude":"55.416667","longitude":"10.116667"},"anderstrup":{"city":"anderstrup","accentcity":"Anderstrup","region":"20","population":null,"latitude":"54.783333","longitude":"11.55"},"anderup":{"city":"anderup","accentcity":"Anderup","region":"21","population":null,"latitude":"55.35","longitude":"9.4"},"andi":{"city":"andi","accentcity":"Andi","region":"18","population":null,"latitude":"56.366667","longitude":"10.3"},"andkaer":{"city":"andkaer","accentcity":"Andkær","region":"21","population":null,"latitude":"55.666667","longitude":"9.633333"},"andrup":{"city":"andrup","accentcity":"Andrup","region":"21","population":null,"latitude":"55.5","longitude":"8.533333"},"andsager":{"city":"andsager","accentcity":"Andsager","region":"21","population":null,"latitude":"55.7","longitude":"8.75"},"anholt":{"city":"anholt","accentcity":"Anholt","region":"21","population":null,"latitude":"55.4","longitude":"9.383333"},"anholt by":{"city":"anholt by","accentcity":"Anholt By","region":"18","population":null,"latitude":"56.7","longitude":"11.55"},"annerup":{"city":"annerup","accentcity":"Annerup","region":"19","population":null,"latitude":"56.916667","longitude":"9.85"},"annisse":{"city":"annisse","accentcity":"Annisse","region":"17","population":null,"latitude":"55.983333","longitude":"12.183333"},"ansager":{"city":"ansager","accentcity":"Ansager","region":"21","population":null,"latitude":"55.7","longitude":"8.75"},"ans":{"city":"ans","accentcity":"Ans","region":"18","population":null,"latitude":"56.316667","longitude":"9.6"},"anst":{"city":"anst","accentcity":"Anst","region":"21","population":null,"latitude":"55.483333","longitude":"9.233333"},"antvorskov":{"city":"antvorskov","accentcity":"Antvorskov","region":"20","population":null,"latitude":"55.383333","longitude":"11.383333"},"anum":{"city":"anum","accentcity":"Ånum","region":"18","population":null,"latitude":"55.95","longitude":"8.55"},"apenrade":{"city":"apenrade","accentcity":"Apenrade","region":"21","population":null,"latitude":"55.033333","longitude":"9.433333"},"appenaes":{"city":"appenaes","accentcity":"Appenæs","region":"20","population":null,"latitude":"55.2","longitude":"11.75"},"apperup":{"city":"apperup","accentcity":"Apperup","region":"17","population":null,"latitude":"56.066667","longitude":"12.533333"},"aptrup":{"city":"aptrup","accentcity":"Aptrup","region":"18","population":null,"latitude":"56.266667","longitude":"9.8"},"arbjerg":{"city":"arbjerg","accentcity":"Årbjerg","region":"19","population":null,"latitude":"56.75","longitude":"8.533333"},"arby":{"city":"arby","accentcity":"Årby","region":"20","population":null,"latitude":"55.65","longitude":"11.15"},"arden":{"city":"arden","accentcity":"Arden","region":"19","population":"2516","latitude":"56.766667","longitude":"9.883333"},"arden stationsby":{"city":"arden stationsby","accentcity":"Arden Stationsby","region":"19","population":null,"latitude":"56.766667","longitude":"9.883333"},"ardestrup":{"city":"ardestrup","accentcity":"Årdestrup","region":"19","population":null,"latitude":"56.816667","longitude":"9.75"},"arentsminde":{"city":"arentsminde","accentcity":"Arentsminde","region":"19","population":null,"latitude":"57.116667","longitude":"9.633333"},"arestrup":{"city":"arestrup","accentcity":"Årestrup","region":"19","population":null,"latitude":"56.816667","longitude":"9.75"},"argab":{"city":"argab","accentcity":"Årgab","region":"18","population":null,"latitude":"55.966667","longitude":"8.15"},"arhus":{"city":"arhus","accentcity":"Århus","region":"18","population":"226716","latitude":"56.15","longitude":"10.216667"},"arlose":{"city":"arlose","accentcity":"Arløse","region":"20","population":null,"latitude":"55.266667","longitude":"11.566667"},"arlose torp":{"city":"arlose torp","accentcity":"Arløse Torp","region":"20","population":null,"latitude":"55.266667","longitude":"11.533333"},"arnager":{"city":"arnager","accentcity":"Arnager","region":"17","population":null,"latitude":"55.05","longitude":"14.783333"},"arnagerbro":{"city":"arnagerbro","accentcity":"Arnagerbro","region":"17","population":null,"latitude":"55.066667","longitude":"14.766667"},"arnakke":{"city":"arnakke","accentcity":"Arnakke","region":"20","population":null,"latitude":"55.666667","longitude":"11.766667"},"arnborg":{"city":"arnborg","accentcity":"Arnborg","region":"18","population":null,"latitude":"56.016667","longitude":"8.983333"},"arndrup":{"city":"arndrup","accentcity":"Arndrup","region":"21","population":null,"latitude":"55.05","longitude":"9.1"},"arninge":{"city":"arninge","accentcity":"Arninge","region":"20","population":null,"latitude":"54.783333","longitude":"11.183333"},"arnitlund":{"city":"arnitlund","accentcity":"Arnitlund","region":"21","population":null,"latitude":"55.2","longitude":"9.333333"},"arnoje":{"city":"arnoje","accentcity":"Arnøje","region":"20","population":null,"latitude":"55.316667","longitude":"12.3"},"arnum":{"city":"arnum","accentcity":"Arnum","region":"21","population":null,"latitude":"55.25","longitude":"8.983333"},"aro":{"city":"aro","accentcity":"Årø","region":"21","population":null,"latitude":"55.266667","longitude":"9.75"},"aro by":{"city":"aro by","accentcity":"Årø By","region":"21","population":null,"latitude":"55.266667","longitude":"9.75"},"arosund":{"city":"arosund","accentcity":"Årøsund","region":"21","population":null,"latitude":"55.25","longitude":"9.716667"},"arre":{"city":"arre","accentcity":"Årre","region":"21","population":null,"latitude":"55.566667","longitude":"8.666667"},"arresodal":{"city":"arresodal","accentcity":"Arresødal","region":"17","population":null,"latitude":"55.966667","longitude":"12.033333"},"arrild":{"city":"arrild","accentcity":"Arrild","region":"21","population":null,"latitude":"55.15","longitude":"8.966667"},"ars":{"city":"ars","accentcity":"Års","region":"19","population":null,"latitude":"56.8","longitude":"9.533333"},"arsballe":{"city":"arsballe","accentcity":"Årsballe","region":"17","population":null,"latitude":"55.15","longitude":"14.883333"},"arsdale":{"city":"arsdale","accentcity":"Årsdale","region":"17","population":null,"latitude":"55.1","longitude":"15.15"},"arslev":{"city":"arslev","accentcity":"Årslev","region":"21","population":"3228","latitude":"55.3","longitude":"10.483333"},"arup":{"city":"arup","accentcity":"Årup","region":"21","population":null,"latitude":"55.383333","longitude":"10.066667"},"asaa":{"city":"asaa","accentcity":"Asaa","region":"19","population":null,"latitude":"57.15","longitude":"10.416667"},"asaaby":{"city":"asaaby","accentcity":"Asaaby","region":"19","population":null,"latitude":"57.15","longitude":"10.416667"},"asa":{"city":"asa","accentcity":"Aså","region":"19","population":null,"latitude":"57.15","longitude":"10.416667"},"as":{"city":"as","accentcity":"Ås","region":"20","population":null,"latitude":"55.3","longitude":"12.1"},"asbaekhede":{"city":"asbaekhede","accentcity":"Asbækhede","region":"18","population":null,"latitude":"56.233333","longitude":"8.8"},"asbo":{"city":"asbo","accentcity":"Asbo","region":"21","population":null,"latitude":"55.55","longitude":"9.116667"},"ase":{"city":"ase","accentcity":"Åse","region":"20","population":null,"latitude":"55.366667","longitude":"11.7"},"asebro":{"city":"asebro","accentcity":"Åsebro","region":"17","population":null,"latitude":"55.983333","longitude":"12.016667"},"asebro huse":{"city":"asebro huse","accentcity":"Åsebro Huse","region":"17","population":null,"latitude":"55.983333","longitude":"12.016667"},"asendrup":{"city":"asendrup","accentcity":"Åsendrup","region":"19","population":null,"latitude":"57.366667","longitude":"9.75"},"asetofte":{"city":"asetofte","accentcity":"Åsetofte","region":"20","population":null,"latitude":"55.366667","longitude":"11.85"},"asfaerg":{"city":"asfaerg","accentcity":"Asfærg","region":"18","population":null,"latitude":"56.55","longitude":"9.933333"},"asferg":{"city":"asferg","accentcity":"Asferg","region":"18","population":null,"latitude":"56.55","longitude":"9.933333"},"ashoje":{"city":"ashoje","accentcity":"Åshøje","region":"20","population":null,"latitude":"55.433333","longitude":"12.133333"},"aside":{"city":"aside","accentcity":"Åside","region":"20","population":null,"latitude":"55.166667","longitude":"11.916667"},"ask":{"city":"ask","accentcity":"Ask","region":"18","population":null,"latitude":"56.033333","longitude":"10.133333"},"askeby":{"city":"askeby","accentcity":"Askeby","region":"21","population":null,"latitude":"55.516667","longitude":"10.216667"},"askildrup":{"city":"askildrup","accentcity":"Askildrup","region":"19","population":null,"latitude":"56.866667","longitude":"10"},"asklev":{"city":"asklev","accentcity":"Asklev","region":"18","population":null,"latitude":"56.083333","longitude":"9.483333"},"asko":{"city":"asko","accentcity":"Askø","region":"20","population":null,"latitude":"54.75","longitude":"11.3"},"asko by":{"city":"asko by","accentcity":"Askø By","region":"20","population":null,"latitude":"54.883333","longitude":"11.483333"},"askov":{"city":"askov","accentcity":"Askov","region":"21","population":null,"latitude":"55.466667","longitude":"9.1"},"askov huse":{"city":"askov huse","accentcity":"Askov Huse","region":"20","population":null,"latitude":"55.183333","longitude":"11.933333"},"aslokke":{"city":"aslokke","accentcity":"Asløkke","region":"18","population":null,"latitude":"55.733333","longitude":"10"},"as mark":{"city":"as mark","accentcity":"Ås Mark","region":"19","population":null,"latitude":"57.333333","longitude":"10.083333"},"asminderod":{"city":"asminderod","accentcity":"Asminderød","region":"17","population":null,"latitude":"55.966667","longitude":"12.416667"},"asminderup":{"city":"asminderup","accentcity":"Asminderup","region":"20","population":null,"latitude":"55.666667","longitude":"11.7"},"asmindrup":{"city":"asmindrup","accentcity":"Asmindrup","region":"20","population":null,"latitude":"55.666667","longitude":"11.7"},"asnaes":{"city":"asnaes","accentcity":"Asnæs","region":"20","population":"2441","latitude":"55.816667","longitude":"11.516667"},"aso":{"city":"aso","accentcity":"Åsø","region":"21","population":null,"latitude":"55.016667","longitude":"10.833333"},"aspa":{"city":"aspa","accentcity":"Aspa","region":"20","population":null,"latitude":"55.766667","longitude":"11.55"},"asp":{"city":"asp","accentcity":"Asp","region":"21","population":null,"latitude":"55.75","longitude":"8.583333"},"aspe":{"city":"aspe","accentcity":"Åspe","region":"21","population":null,"latitude":"55.05","longitude":"8.833333"},"asperup":{"city":"asperup","accentcity":"Asperup","region":"21","population":null,"latitude":"55.483333","longitude":"9.916667"},"assedrup":{"city":"assedrup","accentcity":"Assedrup","region":"18","population":null,"latitude":"56","longitude":"10.2"},"assenbolle":{"city":"assenbolle","accentcity":"Assenbølle","region":"21","population":null,"latitude":"55.4","longitude":"10.1"},"assendlose":{"city":"assendlose","accentcity":"Assendløse","region":"20","population":null,"latitude":"55.566667","longitude":"12"},"assendrup":{"city":"assendrup","accentcity":"Assendrup","region":"21","population":null,"latitude":"55.733333","longitude":"9.683333"},"assens":{"city":"assens","accentcity":"Assens","region":"21","population":"5913","latitude":"55.266667","longitude":"9.916667"},"assentoft":{"city":"assentoft","accentcity":"Assentoft","region":"18","population":"2432","latitude":"56.433333","longitude":"10.15"},"assentorp":{"city":"assentorp","accentcity":"Assentorp","region":"20","population":null,"latitude":"55.566667","longitude":"11.6"},"asserballe":{"city":"asserballe","accentcity":"Asserballe","region":"21","population":null,"latitude":"54.966667","longitude":"9.966667"},"asserballeskov":{"city":"asserballeskov","accentcity":"Asserballeskov","region":"21","population":null,"latitude":"54.966667","longitude":"10"},"asserbo":{"city":"asserbo","accentcity":"Asserbo","region":"17","population":null,"latitude":"56.016667","longitude":"12.016667"},"asseregaards huse":{"city":"asseregaards huse","accentcity":"Asseregaards Huse","region":"17","population":null,"latitude":"55.166667","longitude":"14.85"},"asseregardshuse":{"city":"asseregardshuse","accentcity":"Asseregårdshuse","region":"17","population":null,"latitude":"55.166667","longitude":"14.85"},"assing":{"city":"assing","accentcity":"Assing","region":"18","population":null,"latitude":"56.016667","longitude":"8.85"},"assing kirkeby":{"city":"assing kirkeby","accentcity":"Assing Kirkeby","region":"18","population":null,"latitude":"56.016667","longitude":"8.85"},"assinglose":{"city":"assinglose","accentcity":"Assingløse","region":"20","population":null,"latitude":"55.566667","longitude":"12"},"ast":{"city":"ast","accentcity":"Åst","region":"21","population":null,"latitude":"55.733333","longitude":"9.216667"},"asted":{"city":"asted","accentcity":"Åsted","region":"21","population":null,"latitude":"55.766667","longitude":"8.416667"},"astedbro":{"city":"astedbro","accentcity":"Åstedbro","region":"18","population":null,"latitude":"55.9","longitude":"9.616667"},"astofte":{"city":"astofte","accentcity":"Åstofte","region":"20","population":null,"latitude":"55.816667","longitude":"11.533333"},"astorp":{"city":"astorp","accentcity":"Åstorp","region":"21","population":null,"latitude":"55.4","longitude":"9.516667"},"astrup":{"city":"astrup","accentcity":"Åstrup","region":"21","population":null,"latitude":"55.066667","longitude":"10.35"},"astrupgard":{"city":"astrupgard","accentcity":"Åstrupgård","region":"21","population":null,"latitude":"55.25","longitude":"9.55"},"asum":{"city":"asum","accentcity":"Åsum","region":"21","population":null,"latitude":"55.4","longitude":"10.466667"},"atte":{"city":"atte","accentcity":"Åtte","region":"21","population":null,"latitude":"55.433333","longitude":"8.966667"},"atterup":{"city":"atterup","accentcity":"Atterup","region":"20","population":null,"latitude":"55.283333","longitude":"12.116667"},"attrup":{"city":"attrup","accentcity":"Attrup","region":"19","population":null,"latitude":"57.05","longitude":"9.466667"},"augustenborg":{"city":"augustenborg","accentcity":"Augustenborg","region":"21","population":"3132","latitude":"54.95","longitude":"9.883333"},"augustenhof":{"city":"augustenhof","accentcity":"Augustenhof","region":"21","population":null,"latitude":"55.066667","longitude":"9.716667"},"aulum":{"city":"aulum","accentcity":"Aulum","region":"18","population":"2875","latitude":"56.266667","longitude":"8.8"},"auning":{"city":"auning","accentcity":"Auning","region":"18","population":"2509","latitude":"56.433333","longitude":"10.383333"},"avbaek":{"city":"avbaek","accentcity":"Avbæk","region":"21","population":null,"latitude":"55.05","longitude":"9.483333"},"avdebo":{"city":"avdebo","accentcity":"Avdebo","region":"20","population":null,"latitude":"55.766667","longitude":"11.65"},"avderod":{"city":"avderod","accentcity":"Avderød","region":"17","population":null,"latitude":"55.916667","longitude":"12.45"},"aved":{"city":"aved","accentcity":"Åved","region":"21","population":null,"latitude":"55.183333","longitude":"8.833333"},"avedore":{"city":"avedore","accentcity":"Avedøre","region":"17","population":null,"latitude":"55.65","longitude":"12.45"},"avedore holme":{"city":"avedore holme","accentcity":"Avedøre Holme","region":"17","population":null,"latitude":"55.616667","longitude":"12.483333"},"avernaes":{"city":"avernaes","accentcity":"Avernæs","region":"21","population":null,"latitude":"55.583333","longitude":"10.35"},"avernak by":{"city":"avernak by","accentcity":"Avernak By","region":"21","population":null,"latitude":"55.033333","longitude":"10.266667"},"avernako":{"city":"avernako","accentcity":"Avernakø","region":"21","population":null,"latitude":"55.033333","longitude":"10.266667"},"avernako by":{"city":"avernako by","accentcity":"Avernakö By","region":"21","population":null,"latitude":"55.033333","longitude":"10.266667"},"aversi":{"city":"aversi","accentcity":"Aversi","region":"20","population":null,"latitude":"55.35","longitude":"11.866667"},"avlby":{"city":"avlby","accentcity":"Avlby","region":"21","population":null,"latitude":"55.5","longitude":"9.816667"},"avlum":{"city":"avlum","accentcity":"Avlum","region":"18","population":null,"latitude":"56.266667","longitude":"8.8"},"avnbol":{"city":"avnbol","accentcity":"Avnbøl","region":"21","population":null,"latitude":"54.966667","longitude":"9.65"},"avnede":{"city":"avnede","accentcity":"Avnede","region":"20","population":null,"latitude":"54.816667","longitude":"11.216667"},"avning":{"city":"avning","accentcity":"Avning","region":"18","population":null,"latitude":"56.433333","longitude":"10.383333"},"avnslev":{"city":"avnslev","accentcity":"Avnslev","region":"21","population":null,"latitude":"55.35","longitude":"10.733333"},"avnslev nederby":{"city":"avnslev nederby","accentcity":"Avnslev Nederby","region":"21","population":null,"latitude":"55.35","longitude":"10.733333"},"avnslev overby":{"city":"avnslev overby","accentcity":"Avnslev Overby","region":"21","population":null,"latitude":"55.35","longitude":"10.733333"},"avtrup":{"city":"avtrup","accentcity":"Avtrup","region":"21","population":null,"latitude":"55.583333","longitude":"8.716667"},"baadsbol":{"city":"baadsbol","accentcity":"Baadsböl","region":"21","population":null,"latitude":"55.066667","longitude":"8.666667"},"baadsbol ballum":{"city":"baadsbol ballum","accentcity":"Baadsbøl Ballum","region":"21","population":null,"latitude":"55.066667","longitude":"8.666667"},"baadsted":{"city":"baadsted","accentcity":"Baadsted","region":"17","population":null,"latitude":"55.233333","longitude":"14.883333"},"baago by":{"city":"baago by","accentcity":"Baagö By","region":"21","population":null,"latitude":"55.316667","longitude":"9.816667"},"baalsted":{"city":"baalsted","accentcity":"Baalsted","region":"21","population":null,"latitude":"55.1","longitude":"9.066667"},"baardeso":{"city":"baardeso","accentcity":"Baardesö","region":"21","population":null,"latitude":"55.566667","longitude":"10.4"},"baaring":{"city":"baaring","accentcity":"Baaring","region":"21","population":null,"latitude":"55.5","longitude":"9.916667"},"baaringmark":{"city":"baaringmark","accentcity":"Baaringmark","region":"21","population":null,"latitude":"55.5","longitude":"9.9"},"baaringvad":{"city":"baaringvad","accentcity":"Baaringvad","region":"21","population":null,"latitude":"55.45","longitude":"9.916667"},"baarse":{"city":"baarse","accentcity":"Baarse","region":"20","population":null,"latitude":"55.116667","longitude":"11.966667"},"baarup":{"city":"baarup","accentcity":"Baarup","region":"20","population":null,"latitude":"55.55","longitude":"11.766667"},"baaslunde":{"city":"baaslunde","accentcity":"Baaslunde","region":"20","population":null,"latitude":"55.266667","longitude":"11.316667"},"baastlund":{"city":"baastlund","accentcity":"Baastlund","region":"21","population":null,"latitude":"55.75","longitude":"9.133333"},"baastrup":{"city":"baastrup","accentcity":"Baastrup","region":"18","population":null,"latitude":"55.783333","longitude":"9.65"},"babberup":{"city":"babberup","accentcity":"Babberup","region":"20","population":null,"latitude":"55.316667","longitude":"12.05"},"badsbol":{"city":"badsbol","accentcity":"Bådsbøl","region":"21","population":null,"latitude":"55.066667","longitude":"8.666667"},"badsbol-ballum":{"city":"badsbol-ballum","accentcity":"Bådsbøl-Ballum","region":"21","population":null,"latitude":"55.066667","longitude":"8.666667"},"badsted":{"city":"badsted","accentcity":"Bådsted","region":"17","population":null,"latitude":"55.233333","longitude":"14.883333"},"badstrup":{"city":"badstrup","accentcity":"Badstrup","region":"20","population":null,"latitude":"55.633333","longitude":"11.133333"},"baek":{"city":"baek","accentcity":"Bæk","region":"21","population":null,"latitude":"55.283333","longitude":"9.216667"},"baekbo":{"city":"baekbo","accentcity":"Bækbo","region":"18","population":null,"latitude":"56.033333","longitude":"8.416667"},"baekhuse":{"city":"baekhuse","accentcity":"Bækhuse","region":"21","population":null,"latitude":"55.7","longitude":"8.383333"},"baekke":{"city":"baekke","accentcity":"Bække","region":"21","population":null,"latitude":"55.566667","longitude":"9.15"},"baekkehave":{"city":"baekkehave","accentcity":"Bækkehave","region":"21","population":null,"latitude":"55.016667","longitude":"10.566667"},"baekkehave gaarde":{"city":"baekkehave gaarde","accentcity":"Bækkehave Gaarde","region":"21","population":null,"latitude":"55.016667","longitude":"10.566667"},"baekkelund":{"city":"baekkelund","accentcity":"Bækkelund","region":"18","population":null,"latitude":"56.366667","longitude":"9.35"},"baekke mark":{"city":"baekke mark","accentcity":"Bække Mark","region":"21","population":null,"latitude":"55.583333","longitude":"9.116667"},"baekken":{"city":"baekken","accentcity":"Bækken","region":"21","population":null,"latitude":"54.883333","longitude":"9.533333"},"baekkeskov":{"city":"baekkeskov","accentcity":"Bækkeskov","region":"20","population":null,"latitude":"54.683333","longitude":"11.783333"},"baekmark":{"city":"baekmark","accentcity":"Bækmark","region":"21","population":null,"latitude":"55.516667","longitude":"8.783333"},"baekmarksbro":{"city":"baekmarksbro","accentcity":"Bækmarksbro","region":"18","population":null,"latitude":"56.416667","longitude":"8.316667"},"baeksgard":{"city":"baeksgard","accentcity":"Bæksgård","region":"21","population":null,"latitude":"55.85","longitude":"9.216667"},"baekstrup":{"city":"baekstrup","accentcity":"Bækstrup","region":"21","population":null,"latitude":"55.316667","longitude":"10.616667"},"bael":{"city":"bael","accentcity":"Bæl","region":"20","population":null,"latitude":"55.033333","longitude":"12.116667"},"baelum":{"city":"baelum","accentcity":"Bælum","region":"19","population":null,"latitude":"56.833333","longitude":"10.116667"},"baers":{"city":"baers","accentcity":"Bærs","region":"18","population":null,"latitude":"56.5","longitude":"8.966667"},"baersby":{"city":"baersby","accentcity":"Bærsby","region":"18","population":null,"latitude":"56.5","longitude":"8.966667"},"bagenkop":{"city":"bagenkop","accentcity":"Bagenkop","region":"21","population":null,"latitude":"54.75","longitude":"10.683333"},"bagnkop":{"city":"bagnkop","accentcity":"Bagnkøp","region":"21","population":null,"latitude":"54.75","longitude":"10.683333"},"bago":{"city":"bago","accentcity":"Bågø","region":"21","population":null,"latitude":"55.316667","longitude":"9.816667"},"bago by":{"city":"bago by","accentcity":"Bågø By","region":"21","population":null,"latitude":"55.316667","longitude":"9.816667"},"bagsvaerd":{"city":"bagsvaerd","accentcity":"Bagsværd","region":"17","population":null,"latitude":"55.766667","longitude":"12.466667"},"bagterp":{"city":"bagterp","accentcity":"Bagterp","region":"19","population":null,"latitude":"57.433333","longitude":"9.983333"},"bahl":{"city":"bahl","accentcity":"Bahl","region":"20","population":null,"latitude":"55.033333","longitude":"12.116667"},"bajlum":{"city":"bajlum","accentcity":"Bajlum","region":"18","population":null,"latitude":"56.7","longitude":"8.95"},"bajstrup":{"city":"bajstrup","accentcity":"Bajstrup","region":"21","population":null,"latitude":"54.9","longitude":"9.3"},"bakbjaerg":{"city":"bakbjaerg","accentcity":"Bakbjærg","region":"18","population":null,"latitude":"56.083333","longitude":"9.616667"},"bakbjerg":{"city":"bakbjerg","accentcity":"Bakbjerg","region":"18","population":null,"latitude":"56.083333","longitude":"9.616667"},"bakkebjaerg":{"city":"bakkebjaerg","accentcity":"Bakkebjærg","region":"17","population":null,"latitude":"56.083333","longitude":"12.2"},"bakkebjerg":{"city":"bakkebjerg","accentcity":"Bakkebjerg","region":"17","population":null,"latitude":"56.083333","longitude":"12.2"},"bakkebolle":{"city":"bakkebolle","accentcity":"Bakkebølle","region":"20","population":null,"latitude":"54.983333","longitude":"12"},"bakkebolle fredskov":{"city":"bakkebolle fredskov","accentcity":"Bakkebølle Fredskov","region":"20","population":null,"latitude":"54.966667","longitude":"12.016667"},"bakkegaarde":{"city":"bakkegaarde","accentcity":"Bakkegaarde","region":"17","population":null,"latitude":"55.916667","longitude":"11.916667"},"bakkegarde":{"city":"bakkegarde","accentcity":"Bakkegårde","region":"17","population":null,"latitude":"55.916667","longitude":"11.916667"},"bakkendrup":{"city":"bakkendrup","accentcity":"Bakkendrup","region":"20","population":null,"latitude":"55.566667","longitude":"11.25"},"bakkerup":{"city":"bakkerup","accentcity":"Bakkerup","region":"20","population":null,"latitude":"55.666667","longitude":"11.55"},"baldersbaek":{"city":"baldersbaek","accentcity":"Baldersbæk","region":"21","population":null,"latitude":"55.633333","longitude":"8.916667"},"baldersbronde":{"city":"baldersbronde","accentcity":"Baldersbrønde","region":"17","population":null,"latitude":"55.65","longitude":"12.233333"},"bale":{"city":"bale","accentcity":"Bale","region":"18","population":null,"latitude":"56.316667","longitude":"10.383333"},"balke":{"city":"balke","accentcity":"Balke","region":"17","population":null,"latitude":"55.033333","longitude":"15.116667"},"balle":{"city":"balle","accentcity":"Balle","region":"21","population":null,"latitude":"55.583333","longitude":"9.4"},"ballebo":{"city":"ballebo","accentcity":"Ballebo","region":"18","population":null,"latitude":"55.933333","longitude":"10.016667"},"ballebro":{"city":"ballebro","accentcity":"Ballebro","region":"21","population":null,"latitude":"55","longitude":"9.683333"},"balle by":{"city":"balle by","accentcity":"Balle By","region":"18","population":null,"latitude":"56.183333","longitude":"9.516667"},"balleby":{"city":"balleby","accentcity":"Balleby","region":"18","population":null,"latitude":"56.55","longitude":"8.25"},"balle kirkeby":{"city":"balle kirkeby","accentcity":"Balle Kirkeby","region":"18","population":null,"latitude":"56.2","longitude":"9.533333"},"ballen":{"city":"ballen","accentcity":"Ballen","region":"21","population":null,"latitude":"55.033333","longitude":"10.483333"},"ballerne":{"city":"ballerne","accentcity":"Ballerne","region":"21","population":null,"latitude":"55.583333","longitude":"9.4"},"ballerum":{"city":"ballerum","accentcity":"Ballerum","region":"19","population":null,"latitude":"57.05","longitude":"8.733333"},"ballerup":{"city":"ballerup","accentcity":"Ballerup","region":"17","population":null,"latitude":"55.733333","longitude":"12.366667"},"balle strand":{"city":"balle strand","accentcity":"Balle Strand","region":"20","population":null,"latitude":"55.033333","longitude":"12.133333"},"balling":{"city":"balling","accentcity":"Balling","region":"18","population":null,"latitude":"56.633333","longitude":"8.883333"},"ballum":{"city":"ballum","accentcity":"Ballum","region":"21","population":null,"latitude":"55.083333","longitude":"8.666667"},"balslev":{"city":"balslev","accentcity":"Balslev","region":"21","population":null,"latitude":"55.416667","longitude":"9.9"},"balsted":{"city":"balsted","accentcity":"Bålsted","region":"21","population":null,"latitude":"55.1","longitude":"9.066667"},"balstrup":{"city":"balstrup","accentcity":"Balstrup","region":"20","population":null,"latitude":"55.433333","longitude":"11.816667"},"bandholm":{"city":"bandholm","accentcity":"Bandholm","region":"20","population":null,"latitude":"54.833333","longitude":"11.483333"},"bandsbol":{"city":"bandsbol","accentcity":"Bandsbøl","region":"18","population":null,"latitude":"55.85","longitude":"8.35"},"bandsby":{"city":"bandsby","accentcity":"Bandsby","region":"18","population":null,"latitude":"56.133333","longitude":"8.216667"},"banggarde":{"city":"banggarde","accentcity":"Banggårde","region":"21","population":null,"latitude":"55.2","longitude":"10.066667"},"bangsbo":{"city":"bangsbo","accentcity":"Bangsbo","region":"19","population":null,"latitude":"57.283333","longitude":"11.066667"},"bangsbostrand":{"city":"bangsbostrand","accentcity":"Bangsbostrand","region":"19","population":null,"latitude":"57.416667","longitude":"10.533333"},"bangsbo strand":{"city":"bangsbo strand","accentcity":"Bangsbo Strand","region":"19","population":null,"latitude":"57.416667","longitude":"10.533333"},"bangsebro":{"city":"bangsebro","accentcity":"Bangsebro","region":"20","population":null,"latitude":"54.8","longitude":"11.9"},"bankehuse":{"city":"bankehuse","accentcity":"Bankehuse","region":"20","population":null,"latitude":"55.116667","longitude":"11.816667"},"bannerup":{"city":"bannerup","accentcity":"Bannerup","region":"20","population":null,"latitude":"54.866667","longitude":"11.883333"},"barager":{"city":"barager","accentcity":"Barager","region":"21","population":null,"latitude":"54.9","longitude":"10.816667"},"barbarask":{"city":"barbarask","accentcity":"Barbarask","region":"19","population":null,"latitude":"57.216667","longitude":"9.866667"},"barde":{"city":"barde","accentcity":"Barde","region":"18","population":null,"latitude":"56.116667","longitude":"8.7"},"bardeso":{"city":"bardeso","accentcity":"Bårdesø","region":"21","population":null,"latitude":"55.566667","longitude":"10.4"},"barholt":{"city":"barholt","accentcity":"Barholt","region":"19","population":null,"latitude":"57.4","longitude":"10.166667"},"baring":{"city":"baring","accentcity":"Båring","region":"21","population":null,"latitude":"55.5","longitude":"9.916667"},"baring mark":{"city":"baring mark","accentcity":"Båring Mark","region":"21","population":null,"latitude":"55.5","longitude":"9.9"},"baringvad":{"city":"baringvad","accentcity":"Båringvad","region":"21","population":null,"latitude":"55.45","longitude":"9.916667"},"barlose":{"city":"barlose","accentcity":"Barløse","region":"21","population":null,"latitude":"55.333333","longitude":"9.983333"},"barlose taarup":{"city":"barlose taarup","accentcity":"Barlöse Taarup","region":"21","population":null,"latitude":"55.333333","longitude":"9.966667"},"barlose tarup":{"city":"barlose tarup","accentcity":"Barløse Tårup","region":"21","population":null,"latitude":"55.333333","longitude":"9.966667"},"barlose torp":{"city":"barlose torp","accentcity":"Barlöse Torp","region":"21","population":null,"latitude":"55.333333","longitude":"9.966667"},"barmer":{"city":"barmer","accentcity":"Barmer","region":"19","population":null,"latitude":"56.983333","longitude":"9.55"},"barret":{"city":"barret","accentcity":"Barret","region":"18","population":null,"latitude":"55.716667","longitude":"9.9"},"barrid":{"city":"barrid","accentcity":"Barrid","region":"18","population":null,"latitude":"55.716667","longitude":"9.9"},"barrit":{"city":"barrit","accentcity":"Barrit","region":"18","population":null,"latitude":"55.716667","longitude":"9.9"},"barrithule":{"city":"barrithule","accentcity":"Barrithule","region":"18","population":null,"latitude":"55.7","longitude":"9.883333"},"barritskov by":{"city":"barritskov by","accentcity":"Barritskov By","region":"18","population":null,"latitude":"55.7","longitude":"9.9"},"barsbol":{"city":"barsbol","accentcity":"Barsbøl","region":"19","population":null,"latitude":"56.7","longitude":"10.016667"},"barse":{"city":"barse","accentcity":"Bårse","region":"20","population":null,"latitude":"55.116667","longitude":"11.966667"},"barslev":{"city":"barslev","accentcity":"Barslev","region":"18","population":null,"latitude":"56.65","longitude":"8.5"},"barsmark":{"city":"barsmark","accentcity":"Barsmark","region":"21","population":null,"latitude":"55.083333","longitude":"9.533333"},"barso by":{"city":"barso by","accentcity":"Barsø By","region":"21","population":null,"latitude":"55.116667","longitude":"9.55"},"bartum":{"city":"bartum","accentcity":"Bartum","region":"18","population":null,"latitude":"56.5","longitude":"9.483333"},"barup":{"city":"barup","accentcity":"Barup","region":"20","population":null,"latitude":"54.883333","longitude":"11.983333"},"basballe":{"city":"basballe","accentcity":"Basballe","region":"18","population":null,"latitude":"56.25","longitude":"10.566667"},"baslunde":{"city":"baslunde","accentcity":"Båslunde","region":"20","population":null,"latitude":"55.266667","longitude":"11.316667"},"basnaes":{"city":"basnaes","accentcity":"Basnæs","region":"20","population":null,"latitude":"55.166667","longitude":"11.766667"},"basted hede":{"city":"basted hede","accentcity":"Båsted Hede","region":"19","population":null,"latitude":"57.316667","longitude":"9.783333"},"bastemose":{"city":"bastemose","accentcity":"Bastemose","region":"21","population":null,"latitude":"55.133333","longitude":"10.95"},"bastholm":{"city":"bastholm","accentcity":"Bastholm","region":"19","population":null,"latitude":"57.333333","longitude":"10.066667"},"bastlund":{"city":"bastlund","accentcity":"Båstlund","region":"21","population":null,"latitude":"55.75","longitude":"9.133333"},"bastrup":{"city":"bastrup","accentcity":"Bastrup","region":"21","population":null,"latitude":"55.416667","longitude":"9.283333"},"battrup":{"city":"battrup","accentcity":"Battrup","region":"18","population":null,"latitude":"56.066667","longitude":"10.133333"},"batum":{"city":"batum","accentcity":"Batum","region":"18","population":null,"latitude":"56.5","longitude":"9.483333"},"bavngaard":{"city":"bavngaard","accentcity":"Bavngaard","region":"21","population":null,"latitude":"55.383333","longitude":"8.9"},"bavngard":{"city":"bavngard","accentcity":"Bavngård","region":"21","population":null,"latitude":"55.383333","longitude":"8.9"},"bedegard":{"city":"bedegard","accentcity":"Bedegård","region":"17","population":null,"latitude":"55.016667","longitude":"15.1"},"beder":{"city":"beder","accentcity":"Beder","region":"18","population":"4214","latitude":"56.066667","longitude":"10.216667"},"bederslev":{"city":"bederslev","accentcity":"Bederslev","region":"21","population":null,"latitude":"55.55","longitude":"10.35"},"bedeslev":{"city":"bedeslev","accentcity":"Bedeslev","region":"21","population":null,"latitude":"55.55","longitude":"10.35"},"bedsted":{"city":"bedsted","accentcity":"Bedsted","region":"21","population":null,"latitude":"55.066667","longitude":"9.116667"},"beersted":{"city":"beersted","accentcity":"Beersted","region":"19","population":null,"latitude":"56.9","longitude":"8.566667"},"begtrup":{"city":"begtrup","accentcity":"Begtrup","region":"18","population":null,"latitude":"56.183333","longitude":"10.516667"},"beistrup":{"city":"beistrup","accentcity":"Beistrup","region":"19","population":null,"latitude":"57.033333","longitude":"9.333333"},"bejsnap":{"city":"bejsnap","accentcity":"Bejsnap","region":"21","population":null,"latitude":"55.783333","longitude":"8.7"},"bejstrup":{"city":"bejstrup","accentcity":"Bejstrup","region":"19","population":null,"latitude":"57.033333","longitude":"9.333333"},"beldringe":{"city":"beldringe","accentcity":"Beldringe","region":"21","population":null,"latitude":"55.466667","longitude":"10.333333"},"bellahoj":{"city":"bellahoj","accentcity":"Bellahøj","region":"17","population":null,"latitude":"55.7","longitude":"12.516667"},"belle":{"city":"belle","accentcity":"Belle","region":"18","population":null,"latitude":"55.716667","longitude":"9.766667"},"bellinge":{"city":"bellinge","accentcity":"Bellinge","region":"21","population":"4129","latitude":"55.333333","longitude":"10.333333"},"bendslev":{"city":"bendslev","accentcity":"Bendslev","region":"20","population":null,"latitude":"55.283333","longitude":"11.5"},"bendstrup":{"city":"bendstrup","accentcity":"Bendstrup","region":"18","population":null,"latitude":"56.283333","longitude":"10.25"},"benlose":{"city":"benlose","accentcity":"Benløse","region":"20","population":null,"latitude":"55.466667","longitude":"11.816667"},"bennebo":{"city":"bennebo","accentcity":"Bennebo","region":"20","population":null,"latitude":"55.633333","longitude":"11.466667"},"benslehoj":{"city":"benslehoj","accentcity":"Benslehøj","region":"18","population":null,"latitude":"56.35","longitude":"9.233333"},"benstrup":{"city":"benstrup","accentcity":"Benstrup","region":"18","population":null,"latitude":"56.283333","longitude":"10.25"},"bergmandsdal":{"city":"bergmandsdal","accentcity":"Bergmandsdal","region":"17","population":null,"latitude":"56.016667","longitude":"12.616667"},"bering":{"city":"bering","accentcity":"Bering","region":"18","population":null,"latitude":"56.1","longitude":"10.066667"},"bernstorffsminde":{"city":"bernstorffsminde","accentcity":"Bernstorffsminde","region":"21","population":null,"latitude":"55.15","longitude":"10.383333"},"bersby":{"city":"bersby","accentcity":"Bersby","region":"18","population":null,"latitude":"56.5","longitude":"8.966667"},"bersted":{"city":"bersted","accentcity":"Bersted","region":"19","population":null,"latitude":"56.9","longitude":"8.566667"},"besser":{"city":"besser","accentcity":"Besser","region":"18","population":null,"latitude":"55.866667","longitude":"10.65"},"bested":{"city":"bested","accentcity":"Bested","region":"19","population":null,"latitude":"56.816667","longitude":"8.416667"},"bevtoft":{"city":"bevtoft","accentcity":"Bevtoft","region":"21","population":null,"latitude":"55.2","longitude":"9.216667"},"bidsinge":{"city":"bidsinge","accentcity":"Bidsinge","region":"20","population":null,"latitude":"54.966667","longitude":"12.283333"},"biergby":{"city":"biergby","accentcity":"Biergby","region":"21","population":null,"latitude":"54.966667","longitude":"10.616667"},"bierre":{"city":"bierre","accentcity":"Bierre","region":"20","population":null,"latitude":"55.583333","longitude":"11.2"},"biersted":{"city":"biersted","accentcity":"Biersted","region":"19","population":null,"latitude":"57.15","longitude":"9.816667"},"bigum":{"city":"bigum","accentcity":"Bigum","region":"18","population":null,"latitude":"56.533333","longitude":"9.666667"},"bildso":{"city":"bildso","accentcity":"Bildsø","region":"20","population":null,"latitude":"55.466667","longitude":"11.25"},"billum":{"city":"billum","accentcity":"Billum","region":"21","population":null,"latitude":"55.616667","longitude":"8.333333"},"billund":{"city":"billund","accentcity":"Billund","region":"21","population":"6160","latitude":"55.733333","longitude":"9.116667"},"bilstrup":{"city":"bilstrup","accentcity":"Bilstrup","region":"18","population":null,"latitude":"56.55","longitude":"9.016667"},"biltoft":{"city":"biltoft","accentcity":"Biltoft","region":"21","population":null,"latitude":"55.633333","longitude":"8.65"},"biltris":{"city":"biltris","accentcity":"Biltris","region":"20","population":null,"latitude":"55.716667","longitude":"11.933333"},"bindeballe":{"city":"bindeballe","accentcity":"Bindeballe","region":"21","population":null,"latitude":"55.666667","longitude":"9.266667"},"binderup":{"city":"binderup","accentcity":"Binderup","region":"21","population":null,"latitude":"55.433333","longitude":"9.566667"},"binderup strand":{"city":"binderup strand","accentcity":"Binderup Strand","region":"21","population":null,"latitude":"55.416667","longitude":"9.6"},"bindrup":{"city":"bindrup","accentcity":"Bindrup","region":"21","population":null,"latitude":"55.433333","longitude":"9.566667"},"bindslev":{"city":"bindslev","accentcity":"Bindslev","region":"19","population":null,"latitude":"57.55","longitude":"10.2"},"birk":{"city":"birk","accentcity":"Birk","region":"18","population":null,"latitude":"56.133333","longitude":"9.05"},"birkebjaerg":{"city":"birkebjaerg","accentcity":"Birkebjærg","region":"21","population":null,"latitude":"55.516667","longitude":"10.683333"},"birkebjerg":{"city":"birkebjerg","accentcity":"Birkebjerg","region":"21","population":null,"latitude":"55.516667","longitude":"10.683333"},"birkede":{"city":"birkede","accentcity":"Birkede","region":"20","population":null,"latitude":"55.533333","longitude":"12.016667"},"birkelev":{"city":"birkelev","accentcity":"Birkelev","region":"21","population":null,"latitude":"55.216667","longitude":"8.816667"},"birkelse":{"city":"birkelse","accentcity":"Birkelse","region":"19","population":null,"latitude":"57.15","longitude":"9.683333"},"birkelse stationsby":{"city":"birkelse stationsby","accentcity":"Birkelse Stationsby","region":"19","population":null,"latitude":"57.15","longitude":"9.683333"},"birkemose":{"city":"birkemose","accentcity":"Birkemose","region":"20","population":null,"latitude":"54.566667","longitude":"11.983333"},"birkende":{"city":"birkende","accentcity":"Birkende","region":"21","population":null,"latitude":"55.383333","longitude":"10.583333"},"birkerod":{"city":"birkerod","accentcity":"Birkerød","region":"17","population":"18901","latitude":"55.833333","longitude":"12.433333"},"birket":{"city":"birket","accentcity":"Birket","region":"20","population":null,"latitude":"54.9","longitude":"11.35"},"birkild":{"city":"birkild","accentcity":"Birkild","region":"18","population":null,"latitude":"56.433333","longitude":"8.483333"},"birkinde":{"city":"birkinde","accentcity":"Birkinde","region":"21","population":null,"latitude":"55.383333","longitude":"10.583333"},"birkinge":{"city":"birkinge","accentcity":"Birkinge","region":"21","population":null,"latitude":"55.383333","longitude":"10.583333"},"birkkaer":{"city":"birkkaer","accentcity":"Birkkær","region":"18","population":null,"latitude":"56.166667","longitude":"8.316667"},"birkkjaer":{"city":"birkkjaer","accentcity":"Birkkjær","region":"18","population":null,"latitude":"56.166667","longitude":"8.316667"},"birkmose":{"city":"birkmose","accentcity":"Birkmose","region":"18","population":null,"latitude":"56.15","longitude":"8.75"},"birkmose garde":{"city":"birkmose garde","accentcity":"Birkmose Gårde","region":"18","population":null,"latitude":"56.066667","longitude":"8.583333"},"birkum":{"city":"birkum","accentcity":"Birkum","region":"21","population":null,"latitude":"55.333333","longitude":"10.516667"},"birsted":{"city":"birsted","accentcity":"Birsted","region":"19","population":null,"latitude":"57.15","longitude":"9.816667"},"bisholt":{"city":"bisholt","accentcity":"Bisholt","region":"18","population":null,"latitude":"55.816667","longitude":"9.966667"},"biskopstarup":{"city":"biskopstarup","accentcity":"Biskopstårup","region":"21","population":null,"latitude":"55.333333","longitude":"10.683333"},"biskopstorp":{"city":"biskopstorp","accentcity":"Biskopstorp","region":"21","population":null,"latitude":"55.333333","longitude":"10.683333"},"biskorup":{"city":"biskorup","accentcity":"Biskorup","region":"21","population":null,"latitude":"55.416667","longitude":"10.45"},"bislev":{"city":"bislev","accentcity":"Bislev","region":"19","population":null,"latitude":"56.95","longitude":"9.616667"},"bisnap":{"city":"bisnap","accentcity":"Bisnap","region":"19","population":null,"latitude":"57","longitude":"10.35"},"bispebjaerg":{"city":"bispebjaerg","accentcity":"Bispebjærg","region":"17","population":null,"latitude":"55.716667","longitude":"12.55"},"bispebjerg":{"city":"bispebjerg","accentcity":"Bispebjerg","region":"17","population":null,"latitude":"55.716667","longitude":"12.55"},"bisserup":{"city":"bisserup","accentcity":"Bisserup","region":"20","population":null,"latitude":"55.2","longitude":"11.5"},"bisserup strand":{"city":"bisserup strand","accentcity":"Bisserup Strand","region":"20","population":null,"latitude":"55.183333","longitude":"11.516667"},"bissinge":{"city":"bissinge","accentcity":"Bissinge","region":"20","population":null,"latitude":"54.966667","longitude":"12.283333"},"bistrup":{"city":"bistrup","accentcity":"Bistrup","region":"20","population":null,"latitude":"55.216667","longitude":"11.666667"},"bitteby":{"city":"bitteby","accentcity":"Bitteby","region":"19","population":null,"latitude":"57.233333","longitude":"10.283333"},"bjaelkerup":{"city":"bjaelkerup","accentcity":"Bjælkerup","region":"20","population":null,"latitude":"55.316667","longitude":"12.366667"},"bjaergager":{"city":"bjaergager","accentcity":"Bjærgager","region":"18","population":null,"latitude":"55.966667","longitude":"10.216667"},"bjaergby":{"city":"bjaergby","accentcity":"Bjærgby","region":"21","population":null,"latitude":"54.966667","longitude":"10.616667"},"bjaerge":{"city":"bjaerge","accentcity":"Bjærge","region":"20","population":null,"latitude":"55.583333","longitude":"11.2"},"bjaergede":{"city":"bjaergede","accentcity":"Bjærgede","region":"20","population":null,"latitude":"55.383333","longitude":"12.033333"},"bjaergegravhede":{"city":"bjaergegravhede","accentcity":"Bjærgegravhede","region":"18","population":null,"latitude":"56.6","longitude":"9.5"},"bjaergemark":{"city":"bjaergemark","accentcity":"Bjærgemark","region":"20","population":null,"latitude":"54.65","longitude":"11.433333"},"bjaergemose":{"city":"bjaergemose","accentcity":"Bjærgemose","region":"21","population":null,"latitude":"55.733333","longitude":"8.55"},"bjaergeskov":{"city":"bjaergeskov","accentcity":"Bjærgeskov","region":"20","population":null,"latitude":"54.783333","longitude":"11.283333"},"bjaerget":{"city":"bjaerget","accentcity":"Bjærget","region":"19","population":null,"latitude":"57.1","longitude":"9.016667"},"bjaerggaard":{"city":"bjaerggaard","accentcity":"Bjærggaard","region":"18","population":null,"latitude":"55.866667","longitude":"8.183333"},"bjaerggarde":{"city":"bjaerggarde","accentcity":"Bjærggårde","region":"18","population":null,"latitude":"56.083333","longitude":"8.85"},"bjaergmose":{"city":"bjaergmose","accentcity":"Bjærgmose","region":"21","population":null,"latitude":"55.733333","longitude":"8.55"},"bjaergsted":{"city":"bjaergsted","accentcity":"Bjærgsted","region":"20","population":null,"latitude":"55.666667","longitude":"11.366667"},"bjaert":{"city":"bjaert","accentcity":"Bjært","region":"21","population":null,"latitude":"55.45","longitude":"9.566667"},"bjaerup":{"city":"bjaerup","accentcity":"Bjærup","region":"20","population":null,"latitude":"55.333333","longitude":"11.416667"},"bjaeverskov":{"city":"bjaeverskov","accentcity":"Bjæverskov","region":"20","population":"2619","latitude":"55.45","longitude":"12.033333"},"bjalderup":{"city":"bjalderup","accentcity":"Bjalderup","region":"21","population":null,"latitude":"55.766667","longitude":"8.583333"},"bjedstrup":{"city":"bjedstrup","accentcity":"Bjedstrup","region":"18","population":null,"latitude":"56.066667","longitude":"9.866667"},"bjelkerup":{"city":"bjelkerup","accentcity":"Bjelkerup","region":"20","population":null,"latitude":"55.316667","longitude":"12.366667"},"bjerager":{"city":"bjerager","accentcity":"Bjerager","region":"18","population":null,"latitude":"55.966667","longitude":"10.216667"},"bjergager":{"city":"bjergager","accentcity":"Bjergager","region":"18","population":null,"latitude":"55.966667","longitude":"10.216667"},"bjergby":{"city":"bjergby","accentcity":"Bjergby","region":"21","population":null,"latitude":"54.966667","longitude":"10.616667"},"bjerge":{"city":"bjerge","accentcity":"Bjerge","region":"20","population":null,"latitude":"55.583333","longitude":"11.2"},"bjergemark":{"city":"bjergemark","accentcity":"Bjergemark","region":"20","population":null,"latitude":"54.65","longitude":"11.433333"},"bjergeskov":{"city":"bjergeskov","accentcity":"Bjergeskov","region":"20","population":null,"latitude":"54.783333","longitude":"11.283333"},"bjergeso":{"city":"bjergeso","accentcity":"Bjergesø","region":"20","population":null,"latitude":"55.75","longitude":"11.416667"},"bjerget":{"city":"bjerget","accentcity":"Bjerget","region":"19","population":null,"latitude":"57.1","longitude":"9.016667"},"bjerggaard":{"city":"bjerggaard","accentcity":"Bjerggaard","region":"18","population":null,"latitude":"55.866667","longitude":"8.183333"},"bjerggaarde":{"city":"bjerggaarde","accentcity":"Bjerggaarde","region":"18","population":null,"latitude":"56.083333","longitude":"8.85"},"bjergmose":{"city":"bjergmose","accentcity":"Bjergmose","region":"21","population":null,"latitude":"55.733333","longitude":"8.55"},"bjergsted":{"city":"bjergsted","accentcity":"Bjergsted","region":"20","population":null,"latitude":"55.666667","longitude":"11.366667"},"bjerlev":{"city":"bjerlev","accentcity":"Bjerlev","region":"21","population":null,"latitude":"55.816667","longitude":"9.45"},"bjernaes":{"city":"bjernaes","accentcity":"Bjernæs","region":"20","population":null,"latitude":"54.65","longitude":"11.466667"},"bjernaes husby":{"city":"bjernaes husby","accentcity":"Bjernæs Husby","region":"20","population":null,"latitude":"54.65","longitude":"11.466667"},"bjerndrup":{"city":"bjerndrup","accentcity":"Bjerndrup","region":"21","population":null,"latitude":"54.933333","longitude":"9.333333"},"bjerne":{"city":"bjerne","accentcity":"Bjerne","region":"21","population":null,"latitude":"55.1","longitude":"10.2"},"bjernede":{"city":"bjernede","accentcity":"Bjernede","region":"20","population":null,"latitude":"55.45","longitude":"11.616667"},"bjernemark":{"city":"bjernemark","accentcity":"Bjernemark","region":"21","population":null,"latitude":"55.016667","longitude":"10.6"},"bjerne mark":{"city":"bjerne mark","accentcity":"Bjerne Mark","region":"21","population":null,"latitude":"55.083333","longitude":"10.216667"},"bjerre":{"city":"bjerre","accentcity":"Bjerre","region":"19","population":null,"latitude":"57.05","longitude":"8.7"},"bjerreby":{"city":"bjerreby","accentcity":"Bjerreby","region":"21","population":null,"latitude":"54.966667","longitude":"10.616667"},"bjerrede":{"city":"bjerrede","accentcity":"Bjerrede","region":"20","population":null,"latitude":"55.383333","longitude":"12.033333"},"bjerregard":{"city":"bjerregard","accentcity":"Bjerregård","region":"18","population":null,"latitude":"55.866667","longitude":"8.183333"},"bjerregarde":{"city":"bjerregarde","accentcity":"Bjerregårde","region":"18","population":null,"latitude":"56.066667","longitude":"8.85"},"bjerregrav":{"city":"bjerregrav","accentcity":"Bjerregrav","region":"18","population":null,"latitude":"56.583333","longitude":"9.516667"},"bjerregrav hede":{"city":"bjerregrav hede","accentcity":"Bjerregrav Hede","region":"18","population":null,"latitude":"56.6","longitude":"9.5"},"bjerremose":{"city":"bjerremose","accentcity":"Bjerremose","region":"21","population":null,"latitude":"55.733333","longitude":"8.55"},"bjerresonder":{"city":"bjerresonder","accentcity":"Bjerresønder","region":"20","population":null,"latitude":"55.266667","longitude":"11.433333"},"bjerring":{"city":"bjerring","accentcity":"Bjerring","region":"18","population":null,"latitude":"56.383333","longitude":"9.616667"},"bjerringbro":{"city":"bjerringbro","accentcity":"Bjerringbro","region":"18","population":"7390","latitude":"56.383333","longitude":"9.666667"},"bjert":{"city":"bjert","accentcity":"Bjert","region":"18","population":null,"latitude":"56.466667","longitude":"8.783333"},"bjertrup":{"city":"bjertrup","accentcity":"Bjertrup","region":"18","population":null,"latitude":"56.083333","longitude":"10"},"bjert strand":{"city":"bjert strand","accentcity":"Bjert Strand","region":"21","population":null,"latitude":"55.433333","longitude":"9.616667"},"bjerup":{"city":"bjerup","accentcity":"Bjerup","region":"20","population":null,"latitude":"55.333333","longitude":"11.416667"},"bjestrup":{"city":"bjestrup","accentcity":"Bjestrup","region":"18","population":null,"latitude":"56.066667","longitude":"9.866667"},"bjeverskov":{"city":"bjeverskov","accentcity":"Bjeverskov","region":"20","population":null,"latitude":"55.45","longitude":"12.033333"},"bjodstrup":{"city":"bjodstrup","accentcity":"Bjödstrup","region":"18","population":null,"latitude":"56.1","longitude":"10.166667"},"bjolderup":{"city":"bjolderup","accentcity":"Bjolderup","region":"21","population":null,"latitude":"54.983333","longitude":"9.266667"},"bjorndal":{"city":"bjorndal","accentcity":"Bjørndal","region":"18","population":null,"latitude":"56.616667","longitude":"8.533333"},"bjorndrup":{"city":"bjorndrup","accentcity":"Bjørndrup","region":"19","population":null,"latitude":"56.833333","longitude":"8.833333"},"bjornholt":{"city":"bjornholt","accentcity":"Bjørnholt","region":"18","population":null,"latitude":"56.2","longitude":"9.566667"},"bjorno by":{"city":"bjorno by","accentcity":"Bjørnø By","region":"21","population":null,"latitude":"55.05","longitude":"10.25"},"bjornstrup":{"city":"bjornstrup","accentcity":"Bjørnstrup","region":"20","population":null,"latitude":"55.733333","longitude":"10.933333"},"bjorup":{"city":"bjorup","accentcity":"Bjørup","region":"20","population":null,"latitude":"54.783333","longitude":"11.95"},"bjostrup":{"city":"bjostrup","accentcity":"Bjøstrup","region":"18","population":null,"latitude":"56.1","longitude":"10.166667"},"blaabaeks molle":{"city":"blaabaeks molle","accentcity":"Blaabæks Mølle","region":"20","population":null,"latitude":"55.233333","longitude":"12.116667"},"blaabjaerg gaarde":{"city":"blaabjaerg gaarde","accentcity":"Blaabjærg Gaarde","region":"19","population":null,"latitude":"56.766667","longitude":"8.6"},"blaabjerg gaarde":{"city":"blaabjerg gaarde","accentcity":"Blaabjerg Gaarde","region":"19","population":null,"latitude":"56.766667","longitude":"8.6"},"blaahoj":{"city":"blaahoj","accentcity":"Blaahöj","region":"18","population":null,"latitude":"55.85","longitude":"9.016667"},"blaakaer":{"city":"blaakaer","accentcity":"Blaakær","region":"18","population":null,"latitude":"56.183333","longitude":"10.416667"},"blaakjaer":{"city":"blaakjaer","accentcity":"Blaakjær","region":"18","population":null,"latitude":"56.183333","longitude":"10.416667"},"blaakrog":{"city":"blaakrog","accentcity":"Blaakrog","region":"21","population":null,"latitude":"55","longitude":"9.633333"},"blaavand":{"city":"blaavand","accentcity":"Blaavand","region":"21","population":null,"latitude":"55.55","longitude":"8.133333"},"blabaeks molle":{"city":"blabaeks molle","accentcity":"Blåbæks Mølle","region":"20","population":null,"latitude":"55.233333","longitude":"12.116667"},"blabjerg":{"city":"blabjerg","accentcity":"Blåbjerg","region":"19","population":null,"latitude":"56.766667","longitude":"8.6"},"blabjerg garde":{"city":"blabjerg garde","accentcity":"Blåbjerg Gårde","region":"19","population":null,"latitude":"56.766667","longitude":"8.6"},"bladstrup":{"city":"bladstrup","accentcity":"Bladstrup","region":"21","population":null,"latitude":"55.5","longitude":"10.35"},"blaere":{"city":"blaere","accentcity":"Blære","region":"19","population":null,"latitude":"56.866667","longitude":"9.533333"},"blaesbjaerg":{"city":"blaesbjaerg","accentcity":"Blæsbjærg","region":"18","population":null,"latitude":"56.3","longitude":"8.45"},"blaesbjerg":{"city":"blaesbjerg","accentcity":"Blæsbjerg","region":"19","population":null,"latitude":"57.533333","longitude":"10.316667"},"blaesebjaerg":{"city":"blaesebjaerg","accentcity":"Blæsebjærg","region":"20","population":null,"latitude":"54.9","longitude":"12"},"blaesebjerg":{"city":"blaesebjerg","accentcity":"Blæsebjerg","region":"20","population":null,"latitude":"54.9","longitude":"12"},"blaesenborg":{"city":"blaesenborg","accentcity":"Blæsenborg","region":"21","population":null,"latitude":"55.233333","longitude":"10.766667"},"blahoj":{"city":"blahoj","accentcity":"Blåhøj","region":"18","population":null,"latitude":"55.85","longitude":"9.016667"},"blahoj stationsby":{"city":"blahoj stationsby","accentcity":"Blåhøj Stationsby","region":"18","population":null,"latitude":"55.866667","longitude":"9.033333"},"blakaer":{"city":"blakaer","accentcity":"Blåkær","region":"18","population":null,"latitude":"56.183333","longitude":"10.416667"},"blakrog":{"city":"blakrog","accentcity":"Blåkrog","region":"21","population":null,"latitude":"55","longitude":"9.633333"},"blaksmark":{"city":"blaksmark","accentcity":"Blaksmark","region":"21","population":null,"latitude":"55.666667","longitude":"8.5"},"blands":{"city":"blands","accentcity":"Blands","region":"20","population":null,"latitude":"54.866667","longitude":"11.433333"},"blangs":{"city":"blangs","accentcity":"Blangs","region":"20","population":null,"latitude":"54.866667","longitude":"11.433333"},"blangslev":{"city":"blangslev","accentcity":"Blangslev","region":"20","population":null,"latitude":"55.166667","longitude":"11.883333"},"blangstrup":{"city":"blangstrup","accentcity":"Blangstrup","region":"21","population":null,"latitude":"55.316667","longitude":"10"},"blanke":{"city":"blanke","accentcity":"Blanke","region":"21","population":null,"latitude":"55.5","longitude":"9.883333"},"blans":{"city":"blans","accentcity":"Blans","region":"21","population":null,"latitude":"54.983333","longitude":"9.666667"},"blavand":{"city":"blavand","accentcity":"Blåvand","region":"21","population":null,"latitude":"55.55","longitude":"8.133333"},"bleggrav":{"city":"bleggrav","accentcity":"Bleggrav","region":"19","population":null,"latitude":"57.2","longitude":"9.633333"},"blegind":{"city":"blegind","accentcity":"Blegind","region":"18","population":null,"latitude":"56.066667","longitude":"10.083333"},"bleld":{"city":"bleld","accentcity":"Bleld","region":"18","population":null,"latitude":"55.916667","longitude":"9.9"},"blenstrup":{"city":"blenstrup","accentcity":"Blenstrup","region":"19","population":null,"latitude":"56.883333","longitude":"10.033333"},"blidstrup":{"city":"blidstrup","accentcity":"Blidstrup","region":"19","population":null,"latitude":"56.716667","longitude":"8.7"},"blirup":{"city":"blirup","accentcity":"Blirup","region":"18","population":null,"latitude":"55.883333","longitude":"9.933333"},"blistrup":{"city":"blistrup","accentcity":"Blistrup","region":"19","population":null,"latitude":"56.716667","longitude":"8.7"},"blokhus":{"city":"blokhus","accentcity":"Blokhus","region":"19","population":null,"latitude":"57.25","longitude":"9.583333"},"blommenslyst":{"city":"blommenslyst","accentcity":"Blommenslyst","region":"21","population":null,"latitude":"55.383333","longitude":"10.266667"},"blovstrod":{"city":"blovstrod","accentcity":"Blovstrød","region":"17","population":"2137","latitude":"55.866667","longitude":"12.4"},"bobjaerg":{"city":"bobjaerg","accentcity":"Bobjærg","region":"21","population":null,"latitude":"55.15","longitude":"10.533333"},"bobjerg":{"city":"bobjerg","accentcity":"Bobjerg","region":"21","population":null,"latitude":"55.15","longitude":"10.533333"},"bobol":{"city":"bobol","accentcity":"Bobøl","region":"21","population":null,"latitude":"55.433333","longitude":"8.933333"},"boddum":{"city":"boddum","accentcity":"Boddum","region":"19","population":null,"latitude":"56.7","longitude":"8.483333"},"boddum by":{"city":"boddum by","accentcity":"Boddum By","region":"19","population":null,"latitude":"56.7","longitude":"8.483333"},"bode":{"city":"bode","accentcity":"Bode","region":"18","population":null,"latitude":"56.483333","longitude":"10.316667"},"boderne":{"city":"boderne","accentcity":"Boderne","region":"17","population":null,"latitude":"55.016667","longitude":"14.916667"},"bodholt":{"city":"bodholt","accentcity":"Bodholt","region":"18","population":null,"latitude":"56.133333","longitude":"9.283333"},"bodilsker":{"city":"bodilsker","accentcity":"Bodilsker","region":"17","population":null,"latitude":"55.066667","longitude":"15.066667"},"bodilskirke":{"city":"bodilskirke","accentcity":"Bodilskirke","region":"17","population":null,"latitude":"55.066667","longitude":"15.066667"},"bodkergard":{"city":"bodkergard","accentcity":"Bødkergård","region":"19","population":null,"latitude":"57.001667","longitude":"10.2"},"bodkergarde":{"city":"bodkergarde","accentcity":"Bødkergårde","region":"19","population":null,"latitude":"57.001667","longitude":"10.2"},"bodstrup":{"city":"bodstrup","accentcity":"Bödstrup","region":"18","population":null,"latitude":"56.283333","longitude":"10.55"},"bodum":{"city":"bodum","accentcity":"Bodum","region":"21","population":null,"latitude":"55.083333","longitude":"9.433333"},"boes":{"city":"boes","accentcity":"Boes","region":"18","population":null,"latitude":"56.05","longitude":"9.8"},"boeslum":{"city":"boeslum","accentcity":"Boeslum","region":"18","population":null,"latitude":"56.2","longitude":"10.716667"},"boeslunde":{"city":"boeslunde","accentcity":"Boeslunde","region":"20","population":null,"latitude":"55.3","longitude":"11.283333"},"boest":{"city":"boest","accentcity":"Boest","region":"18","population":null,"latitude":"55.983333","longitude":"9.45"},"boestofte":{"city":"boestofte","accentcity":"Boestofte","region":"20","population":null,"latitude":"55.266667","longitude":"12.316667"},"bogballe":{"city":"bogballe","accentcity":"Bøgballe","region":"18","population":null,"latitude":"55.833333","longitude":"9.633333"},"bogebjaerg":{"city":"bogebjaerg","accentcity":"Bögebjærg","region":"21","population":null,"latitude":"55","longitude":"10.533333"},"bogebjaerg huse":{"city":"bogebjaerg huse","accentcity":"Bögebjærg Huse","region":"21","population":null,"latitude":"55","longitude":"10.533333"},"bogebjerg":{"city":"bogebjerg","accentcity":"Bøgebjerg","region":"21","population":null,"latitude":"55","longitude":"10.533333"},"boge":{"city":"boge","accentcity":"Boge","region":"20","population":null,"latitude":"54.933333","longitude":"12.05"},"bogede":{"city":"bogede","accentcity":"Bøgede","region":"20","population":null,"latitude":"55.466667","longitude":"11.966667"},"bogelund":{"city":"bogelund","accentcity":"Bøgelund","region":"18","population":null,"latitude":"56.233333","longitude":"9.216667"},"bogelunde":{"city":"bogelunde","accentcity":"Bøgelunde","region":"20","population":null,"latitude":"55.233333","longitude":"11.433333"},"bogens":{"city":"bogens","accentcity":"Bogens","region":"18","population":null,"latitude":"56.216667","longitude":"10.566667"},"bogense":{"city":"bogense","accentcity":"Bogense","region":"21","population":"3410","latitude":"55.566667","longitude":"10.1"},"bogentved":{"city":"bogentved","accentcity":"Bogentved","region":"21","population":null,"latitude":"55.066667","longitude":"10.3"},"bogeparken":{"city":"bogeparken","accentcity":"Bøgeparken","region":"21","population":null,"latitude":"55.683333","longitude":"9.55"},"bogeskov":{"city":"bogeskov","accentcity":"Bøgeskov","region":"20","population":null,"latitude":"54.883333","longitude":"11.233333"},"bogeso":{"city":"bogeso","accentcity":"Bøgesø","region":"20","population":null,"latitude":"55.2","longitude":"11.916667"},"bogholm":{"city":"bogholm","accentcity":"Bøgholm","region":"21","population":null,"latitude":"55","longitude":"9.533333"},"bogildgard":{"city":"bogildgard","accentcity":"Bøgildgård","region":"18","population":null,"latitude":"56.266667","longitude":"9.4"},"bognaes":{"city":"bognaes","accentcity":"Bognæs","region":"20","population":null,"latitude":"55.75","longitude":"11.766667"},"bogo":{"city":"bogo","accentcity":"Bogö","region":"20","population":null,"latitude":"54.933333","longitude":"12.05"},"bogo by":{"city":"bogo by","accentcity":"Bogø By","region":"20","population":null,"latitude":"54.933333","longitude":"12.05"},"bogo kirke":{"city":"bogo kirke","accentcity":"Bogø Kirke","region":"20","population":null,"latitude":"54.933333","longitude":"12.05"},"bogvad":{"city":"bogvad","accentcity":"Bøgvad","region":"21","population":null,"latitude":"54.983333","longitude":"9.016667"},"boholt":{"city":"boholt","accentcity":"Boholt","region":"21","population":null,"latitude":"55.216667","longitude":"10.783333"},"bojden":{"city":"bojden","accentcity":"Bøjden","region":"21","population":null,"latitude":"55.1","longitude":"10.116667"},"bojen":{"city":"bojen","accentcity":"Bøjen","region":"18","population":null,"latitude":"56.383333","longitude":"10.35"},"bojskov":{"city":"bojskov","accentcity":"Bojskov","region":"21","population":null,"latitude":"55.316667","longitude":"9.533333"},"bojstrup":{"city":"bojstrup","accentcity":"Bøjstrup","region":"18","population":null,"latitude":"56.4","longitude":"10.5"},"bol":{"city":"bol","accentcity":"Bøl","region":"18","population":null,"latitude":"56.666667","longitude":"8.633333"},"bolbro":{"city":"bolbro","accentcity":"Bolbro","region":"21","population":null,"latitude":"55.383333","longitude":"10.35"},"bolderslev":{"city":"bolderslev","accentcity":"Bolderslev","region":"21","population":null,"latitude":"54.983333","longitude":"9.3"},"boldesager":{"city":"boldesager","accentcity":"Boldesager","region":"21","population":null,"latitude":"55.483333","longitude":"8.483333"},"bolding":{"city":"bolding","accentcity":"Bolding","region":"21","population":null,"latitude":"55.7","longitude":"9.016667"},"boldrup":{"city":"boldrup","accentcity":"Boldrup","region":"19","population":null,"latitude":"56.683333","longitude":"9.633333"},"bole":{"city":"bole","accentcity":"Bøle","region":"18","population":null,"latitude":"56.666667","longitude":"8.633333"},"bolilmark":{"city":"bolilmark","accentcity":"Bolilmark","region":"21","population":null,"latitude":"55.15","longitude":"8.55"},"bolle":{"city":"bolle","accentcity":"Bolle","region":"19","population":null,"latitude":"57.15","longitude":"10.266667"},"boller":{"city":"boller","accentcity":"Boller","region":"18","population":null,"latitude":"55.833333","longitude":"9.916667"},"bolling":{"city":"bolling","accentcity":"Bølling","region":"21","population":null,"latitude":"55.583333","longitude":"9.35"},"bollund":{"city":"bollund","accentcity":"Bøllund","region":"21","population":null,"latitude":"55.866667","longitude":"9.2"},"bolmerod":{"city":"bolmerod","accentcity":"Bolmerod","region":"21","population":null,"latitude":"55.533333","longitude":"10.283333"},"bolshavn":{"city":"bolshavn","accentcity":"Bølshavn","region":"17","population":null,"latitude":"55.15","longitude":"15.083333"},"bolskov":{"city":"bolskov","accentcity":"Bolskov","region":"21","population":null,"latitude":"55.583333","longitude":"9.583333"},"bolsmose":{"city":"bolsmose","accentcity":"Bolsmose","region":"21","population":null,"latitude":"55.133333","longitude":"10.75"},"bolteskov":{"city":"bolteskov","accentcity":"Bolteskov","region":"21","population":null,"latitude":"55.233333","longitude":"10.45"},"boltinge":{"city":"boltinge","accentcity":"Boltinge","region":"21","population":null,"latitude":"55.233333","longitude":"10.45"},"bondeby":{"city":"bondeby","accentcity":"Bondeby","region":"21","population":null,"latitude":"54.866667","longitude":"10.516667"},"bondebyen":{"city":"bondebyen","accentcity":"Bondebyen","region":"21","population":null,"latitude":"54.866667","longitude":"10.516667"},"bonderby":{"city":"bonderby","accentcity":"Bønderby","region":"21","population":null,"latitude":"54.95","longitude":"8.783333"},"bondergaarde":{"city":"bondergaarde","accentcity":"Böndergaarde","region":"18","population":null,"latitude":"56.1","longitude":"8.216667"},"bondergarde":{"city":"bondergarde","accentcity":"Bøndergårde","region":"18","population":null,"latitude":"56.1","longitude":"8.216667"},"bonderod":{"city":"bonderod","accentcity":"Bonderød","region":"20","population":null,"latitude":"55.266667","longitude":"12.183333"},"bonderup":{"city":"bonderup","accentcity":"Bonderup","region":"20","population":null,"latitude":"55.216667","longitude":"11.85"},"bonkel":{"city":"bonkel","accentcity":"Bønkel","region":"21","population":null,"latitude":"55.3","longitude":"10.733333"},"bonnerup":{"city":"bonnerup","accentcity":"Bønnerup","region":"18","population":null,"latitude":"56.516667","longitude":"10.733333"},"bonnerup strand":{"city":"bonnerup strand","accentcity":"Bønnerup Strand","region":"18","population":null,"latitude":"56.533333","longitude":"10.716667"},"bonnet":{"city":"bonnet","accentcity":"Bønnet","region":"20","population":null,"latitude":"54.816667","longitude":"12.116667"},"bonstrup":{"city":"bonstrup","accentcity":"Bønstrup","region":"21","population":null,"latitude":"55.433333","longitude":"9.3"},"bonsvig":{"city":"bonsvig","accentcity":"Bønsvig","region":"20","population":null,"latitude":"55.116667","longitude":"12.183333"},"borbjaerg":{"city":"borbjaerg","accentcity":"Borbjærg","region":"18","population":null,"latitude":"56.4","longitude":"8.766667"},"borbjerg":{"city":"borbjerg","accentcity":"Borbjerg","region":"18","population":null,"latitude":"56.4","longitude":"8.766667"},"bording":{"city":"bording","accentcity":"Bording","region":"18","population":"2104","latitude":"56.15","longitude":"9.283333"},"bording kirkeby":{"city":"bording kirkeby","accentcity":"Bording Kirkeby","region":"18","population":null,"latitude":"56.166667","longitude":"9.25"},"bording mark":{"city":"bording mark","accentcity":"Bording Mark","region":"18","population":null,"latitude":"56.183333","longitude":"9.2"},"bording stationsby":{"city":"bording stationsby","accentcity":"Bording Stationsby","region":"18","population":null,"latitude":"56.15","longitude":"9.283333"},"bordrup":{"city":"bordrup","accentcity":"Bordrup","region":"21","population":null,"latitude":"55.583333","longitude":"8.25"},"borg":{"city":"borg","accentcity":"Borg","region":"21","population":null,"latitude":"55.033333","longitude":"8.8"},"borglum":{"city":"borglum","accentcity":"Børglum","region":"19","population":null,"latitude":"57.366667","longitude":"9.833333"},