{"aatli":{"city":"aatli","accentcity":"Aätlí","region":"06","population":null,"latitude":"41.2777778","longitude":"22.7861111"},"abar koi":{"city":"abar koi","accentcity":"Abár Kóï","region":"06","population":null,"latitude":"40.8680556","longitude":"22.9047222"},"abdular":{"city":"abdular","accentcity":"Abdulár","region":"21","population":null,"latitude":"39.4833333","longitude":"22.6"},"acharnae":{"city":"acharnae","accentcity":"Acharnae","region":"35","population":null,"latitude":"38.0833333","longitude":"23.7333333"},"acharne":{"city":"acharne","accentcity":"Acharne","region":"35","population":null,"latitude":"38.0833333","longitude":"23.7333333"},"achataries":{"city":"achataries","accentcity":"Achatariés","region":"22","population":null,"latitude":"39.4577778","longitude":"21.3194444"},"achelinada":{"city":"achelinada","accentcity":"Achelináda","region":"22","population":null,"latitude":"39.825","longitude":"21.8711111"},"acherousia":{"city":"acherousia","accentcity":"Acherousía","region":"19","population":null,"latitude":"39.2577778","longitude":"20.5958333"},"achilleion":{"city":"achilleion","accentcity":"Achílleion","region":"25","population":null,"latitude":"39.5644444","longitude":"19.905"},"achladea":{"city":"achladea","accentcity":"Achladéa","region":"22","population":null,"latitude":"39.8358333","longitude":"21.6091667"},"achladeai":{"city":"achladeai","accentcity":"Achladéai","region":"17","population":null,"latitude":"39.4522222","longitude":"20.7727778"},"achladia":{"city":"achladia","accentcity":"Achladiá","region":"22","population":null,"latitude":"39.8358333","longitude":"21.6091667"},"achladies":{"city":"achladies","accentcity":"Achladiés","region":"17","population":null,"latitude":"39.4522222","longitude":"20.7727778"},"achladochorio":{"city":"achladochorio","accentcity":"Achladochório","region":"07","population":null,"latitude":"40.8352778","longitude":"22.3358333"},"achladochorion":{"city":"achladochorion","accentcity":"Achladochórion","region":"07","population":null,"latitude":"40.8352778","longitude":"22.3358333"},"adali":{"city":"adali","accentcity":"Adalí","region":"13","population":null,"latitude":"40.4333333","longitude":"23.0333333"},"adamas":{"city":"adamas","accentcity":"Adámas","region":"49","population":"1478","latitude":"36.7333333","longitude":"24.4333333"},"adas":{"city":"adas","accentcity":"Adás","region":"14","population":null,"latitude":"41.1333333","longitude":"24.7"},"adendro":{"city":"adendro","accentcity":"Ádendro","region":"13","population":null,"latitude":"40.6716667","longitude":"22.6044444"},"adendron":{"city":"adendron","accentcity":"Ádendron","region":"13","population":"2312","latitude":"40.6716667","longitude":"22.6044444"},"adham":{"city":"adham","accentcity":"Adhám","region":"13","population":null,"latitude":"40.55","longitude":"23.3"},"adhamas":{"city":"adhamas","accentcity":"Adhámas","region":"49","population":null,"latitude":"36.7333333","longitude":"24.4333333"},"adhami":{"city":"adhami","accentcity":"Adhámi","region":"36","population":null,"latitude":"37.5666667","longitude":"23.0666667"},"adhamioi":{"city":"adhamioi","accentcity":"Adhámioi","region":"36","population":null,"latitude":"37.5666667","longitude":"23.0666667"},"adhamion":{"city":"adhamion","accentcity":"Adhámion","region":"36","population":null,"latitude":"37.5666667","longitude":"23.0666667"},"adhele":{"city":"adhele","accentcity":"Ádhele","region":"44","population":null,"latitude":"35.3666667","longitude":"24.5666667"},"adhelfikon":{"city":"adhelfikon","accentcity":"Adhelfikón","region":"05","population":null,"latitude":"41.0166667","longitude":"23.4666667"},"adhendhron":{"city":"adhendhron","accentcity":"Ádhendhron","region":"13","population":null,"latitude":"40.6716667","longitude":"22.6044444"},"adhendron":{"city":"adhendron","accentcity":"Ádhendron","region":"13","population":null,"latitude":"40.6716667","longitude":"22.6044444"},"adhiakopos":{"city":"adhiakopos","accentcity":"Adhiákopos","region":"42","population":null,"latitude":"36.5666667","longitude":"23.05"},"adhraktia":{"city":"adhraktia","accentcity":"Adhráktia","region":"45","population":null,"latitude":"35.15","longitude":"25.0333333"},"adhramilos":{"city":"adhramilos","accentcity":"Adhrámilos","region":"46","population":null,"latitude":"35.0833333","longitude":"26.0333333"},"adhravastoi":{"city":"adhravastoi","accentcity":"Adhravástoi","region":"46","population":null,"latitude":"35.1333333","longitude":"26.2166667"},"adhravastos":{"city":"adhravastos","accentcity":"Adhravástos","region":"46","population":null,"latitude":"35.3166667","longitude":"25.6166667"},"adhrayastos":{"city":"adhrayastos","accentcity":"Adhrayástos","region":"46","population":null,"latitude":"35.3166667","longitude":"25.6166667"},"adhriani":{"city":"adhriani","accentcity":"Adhrianí","region":"40","population":null,"latitude":"36.8666667","longitude":"21.8666667"},"adhrianos":{"city":"adhrianos","accentcity":"Adhrianós","region":"46","population":null,"latitude":"35.2","longitude":"25.6166667"},"adhrianou":{"city":"adhrianou","accentcity":"Adhrianoú","region":"46","population":null,"latitude":"35.2","longitude":"25.6166667"},"aedipsos":{"city":"aedipsos","accentcity":"Aedipsos","region":"34","population":null,"latitude":"38.8833333","longitude":"23.05"},"aegae":{"city":"aegae","accentcity":"Aegae","region":"34","population":null,"latitude":"38.7666667","longitude":"23.3166667"},"aegaleo":{"city":"aegaleo","accentcity":"Aegaleo","region":"35","population":null,"latitude":"37.9833333","longitude":"23.6833333"},"aegina":{"city":"aegina","accentcity":"Aegina","region":"35","population":null,"latitude":"37.7466667","longitude":"23.4275"},"aegion":{"city":"aegion","accentcity":"Aegion","region":"38","population":null,"latitude":"38.2486111","longitude":"22.0819444"},"aegium":{"city":"aegium","accentcity":"Aegium","region":"38","population":null,"latitude":"38.2486111","longitude":"22.0819444"},"aerinon":{"city":"aerinon","accentcity":"Aërinón","region":"24","population":null,"latitude":"39.3333333","longitude":"22.7666667"},"aerinos":{"city":"aerinos","accentcity":"Aërinós","region":"43","population":null,"latitude":"35.3666667","longitude":"23.6"},"aerokhori":{"city":"aerokhori","accentcity":"Aërokhóri","region":"40","population":null,"latitude":"37.1333333","longitude":"22.0333333"},"aetochori":{"city":"aetochori","accentcity":"Aetochóri","region":"23","population":null,"latitude":"39.2858333","longitude":"21.4669444"},"aetochorion":{"city":"aetochorion","accentcity":"Aetochórion","region":"23","population":null,"latitude":"39.2858333","longitude":"21.4669444"},"aetofolea":{"city":"aetofolea","accentcity":"Aëtofoléa","region":"49","population":null,"latitude":"37.6166667","longitude":"25.1166667"},"aetofolia":{"city":"aetofolia","accentcity":"Aetofoliá","region":"49","population":null,"latitude":"37.6166667","longitude":"25.1166667"},"aetokhori":{"city":"aetokhori","accentcity":"Aëtokhóri","region":"07","population":null,"latitude":"41.0952778","longitude":"22.1725"},"aetokhorion":{"city":"aetokhorion","accentcity":"Aëtokhórion","region":"41","population":null,"latitude":"37.4","longitude":"22.6"},"aetokorifi":{"city":"aetokorifi","accentcity":"Aëtokorifí","region":"02","population":null,"latitude":"40.9833333","longitude":"25.6166667"},"aetolfos":{"city":"aetolfos","accentcity":"Aëtólfos","region":"21","population":null,"latitude":"39.6833333","longitude":"22.7333333"},"aetoliko":{"city":"aetoliko","accentcity":"Aetoliko","region":"31","population":null,"latitude":"38.4333333","longitude":"21.35"},"aetolofos":{"city":"aetolofos","accentcity":"Aëtólofos","region":"21","population":null,"latitude":"39.6833333","longitude":"22.7333333"},"aetomilitsa":{"city":"aetomilitsa","accentcity":"Aëtomilítsa","region":"17","population":null,"latitude":"40.3069444","longitude":"20.8538889"},"aetopetra":{"city":"aetopetra","accentcity":"Aëtópetra","region":"31","population":null,"latitude":"38.6166667","longitude":"21.6833333"},"aetorrachi":{"city":"aetorrachi","accentcity":"Aëtorráchi","region":"17","population":null,"latitude":"39.52","longitude":"20.9408333"},"aetorrakhi":{"city":"aetorrakhi","accentcity":"Aëtorrákhi","region":"41","population":null,"latitude":"37.6666667","longitude":"21.9166667"},"aetos":{"city":"aetos","accentcity":"Aëtós","region":"40","population":null,"latitude":"37.25","longitude":"21.8333333"},"aetovouni":{"city":"aetovouni","accentcity":"Aetovoúni","region":"05","population":null,"latitude":"41.2833333","longitude":"23.25"},"aetovounion":{"city":"aetovounion","accentcity":"Aëtovoúnion","region":"05","population":null,"latitude":"41.2833333","longitude":"23.25"},"afalonas":{"city":"afalonas","accentcity":"Afálonas","region":"51","population":null,"latitude":"39.1480556","longitude":"26.5144444"},"afaloti":{"city":"afaloti","accentcity":"Afalotí","region":"42","population":null,"latitude":"36.5833333","longitude":"22.4"},"afandou":{"city":"afandou","accentcity":"Afándou","region":"47","population":null,"latitude":"36.3","longitude":"28.15"},"afantou":{"city":"afantou","accentcity":"Afántou","region":"47","population":"5562","latitude":"36.3","longitude":"28.15"},"afetai":{"city":"afetai","accentcity":"Afétai","region":"24","population":null,"latitude":"39.2833333","longitude":"23.1833333"},"afidhnai":{"city":"afidhnai","accentcity":"Afídhnai","region":"35","population":null,"latitude":"38.2166667","longitude":"23.8333333"},"afini":{"city":"afini","accentcity":"Afini","region":"35","population":null,"latitude":"37.9833333","longitude":"23.7333333"},"afion":{"city":"afion","accentcity":"Afión","region":"25","population":null,"latitude":"39.7208333","longitude":"19.6594444"},"afionas":{"city":"afionas","accentcity":"Afiónas","region":"25","population":null,"latitude":"39.7208333","longitude":"19.6594444"},"afision":{"city":"afision","accentcity":"Afisión","region":"42","population":null,"latitude":"37.1","longitude":"22.45"},"afissos":{"city":"afissos","accentcity":"Afissós","region":"42","population":null,"latitude":"37.1","longitude":"22.45"},"afitos":{"city":"afitos","accentcity":"Áfitos","region":"13","population":"1428","latitude":"40.1","longitude":"23.4333333"},"aflakion":{"city":"aflakion","accentcity":"Aflákion","region":"47","population":null,"latitude":"36.5586111","longitude":"27.1755556"},"afra":{"city":"afra","accentcity":"Áfra","region":"25","population":"879","latitude":"39.6197222","longitude":"19.8577778"},"afrata":{"city":"afrata","accentcity":"Afráta","region":"43","population":null,"latitude":"35.5666667","longitude":"23.7666667"},"afrati":{"city":"afrati","accentcity":"Afratí","region":"45","population":null,"latitude":"35.1","longitude":"25.35"},"afration":{"city":"afration","accentcity":"Afrátion","region":"45","population":null,"latitude":"35.1","longitude":"25.35"},"afraton":{"city":"afraton","accentcity":"Afráton","region":"31","population":null,"latitude":"38.6166667","longitude":"21.5333333"},"afrayia":{"city":"afrayia","accentcity":"Afrayiá","region":"27","population":null,"latitude":"38.15","longitude":"20.75"},"afrayias":{"city":"afrayias","accentcity":"Afrayiás","region":"27","population":null,"latitude":"38.15","longitude":"20.75"},"afrodhiti":{"city":"afrodhiti","accentcity":"Afrodhíti","region":"31","population":null,"latitude":"38.4","longitude":"21.8"},"afrodisia":{"city":"afrodisia","accentcity":"Afrodísia","region":"50","population":null,"latitude":"38.5544444","longitude":"25.925"},"afroti":{"city":"afroti","accentcity":"Afrotí","region":"45","population":null,"latitude":"35.1","longitude":"25.35"},"afroxilia":{"city":"afroxilia","accentcity":"Afroxiliá","region":"20","population":null,"latitude":"39.2194444","longitude":"21.3080556"},"afroxylia":{"city":"afroxylia","accentcity":"Afroxyliá","region":"20","population":null,"latitude":"39.2194444","longitude":"21.3080556"},"agadhaiika":{"city":"agadhaiika","accentcity":"Agadhaíika","region":"42","population":null,"latitude":"36.7333333","longitude":"22.55"},"agadheika":{"city":"agadheika","accentcity":"Agadhéïka","region":"42","population":null,"latitude":"36.7333333","longitude":"22.55"},"agajiki":{"city":"agajiki","accentcity":"Agajíki","region":"40","population":null,"latitude":"36.8166667","longitude":"21.75"},"agakiana":{"city":"agakiana","accentcity":"Agakianá","region":"43","population":null,"latitude":"35.3333333","longitude":"23.7333333"},"agalai":{"city":"agalai","accentcity":"Agalaí","region":"10","population":null,"latitude":"40.0333333","longitude":"21.6166667"},"agalaioi":{"city":"agalaioi","accentcity":"Agalaíoi","region":"10","population":null,"latitude":"40.0333333","longitude":"21.6166667"},"agalar":{"city":"agalar","accentcity":"Agalár","region":"14","population":null,"latitude":"41.0666667","longitude":"24.75"},"agalas":{"city":"agalas","accentcity":"Agalás","region":"28","population":null,"latitude":"37.7166667","longitude":"20.7833333"},"agaliani":{"city":"agaliani","accentcity":"Agalianí","region":"40","population":null,"latitude":"37.35","longitude":"21.7333333"},"agalianos":{"city":"agalianos","accentcity":"Agalianós","region":"44","population":null,"latitude":"35.1666667","longitude":"24.5333333"},"agalianou":{"city":"agalianou","accentcity":"Agalianoú","region":"44","population":null,"latitude":"35.1666667","longitude":"24.5333333"},"agallo":{"city":"agallo","accentcity":"Agállo","region":"41","population":null,"latitude":"37.5833333","longitude":"21.95"},"agalo":{"city":"agalo","accentcity":"Agálo","region":"41","population":null,"latitude":"37.5833333","longitude":"21.95"},"agamandia":{"city":"agamandia","accentcity":"Agamandia","region":"47","population":null,"latitude":"35.6833333","longitude":"27.15"},"aganotaiika":{"city":"aganotaiika","accentcity":"Aganotaíika","region":"35","population":null,"latitude":"37.4333333","longitude":"23.4"},"agantziki":{"city":"agantziki","accentcity":"Agantzíki","region":"40","population":null,"latitude":"36.8166667","longitude":"21.75"},"agapi":{"city":"agapi","accentcity":"Agápi","region":"49","population":null,"latitude":"37.6","longitude":"25.1666667"},"agathi":{"city":"agathi","accentcity":"Agáthi","region":"07","population":null,"latitude":"41.0091667","longitude":"22.0588889"},"agatho":{"city":"agatho","accentcity":"Agathó","region":"34","population":null,"latitude":"38.1166667","longitude":"24.5"},"agathon":{"city":"agathon","accentcity":"Agathón","region":"34","population":null,"latitude":"38.1166667","longitude":"24.5"},"agathos":{"city":"agathos","accentcity":"Agathós","region":"34","population":null,"latitude":"38.1166667","longitude":"24.5"},"agdhinai":{"city":"agdhinai","accentcity":"Agdhínai","region":"34","population":null,"latitude":"38.9666667","longitude":"23.3"},"agdhines":{"city":"agdhines","accentcity":"Agdhínes","region":"34","population":null,"latitude":"38.9666667","longitude":"23.3"},"agelopo":{"city":"agelopo","accentcity":"Agelopó","region":"50","population":null,"latitude":"38.5822222","longitude":"25.97"},"aggeies":{"city":"aggeies","accentcity":"Aggeies","region":"29","population":null,"latitude":"39.1","longitude":"22.2"},"aghia eirene":{"city":"aghia eirene","accentcity":"Aghia Eirene","region":"34","population":null,"latitude":"37.9666667","longitude":"24.4833333"},"agia agathi":{"city":"agia agathi","accentcity":"Agía Agáthi","region":"23","population":null,"latitude":"39.185","longitude":"21.7663889"},"agia":{"city":"agia","accentcity":"Agiá","region":"21","population":null,"latitude":"39.7177778","longitude":"22.7636111"},"(( agia aikaterini ))":{"city":"(( agia aikaterini ))","accentcity":"(( Agía Aikateríni ))","region":"25","population":null,"latitude":"39.8172222","longitude":"19.845"},"agia anastasia":{"city":"agia anastasia","accentcity":"Agía Anastasía","region":"17","population":null,"latitude":"39.5630556","longitude":"20.7383333"},"agia anna":{"city":"agia anna","accentcity":"Agía Ánna","region":"09","population":null,"latitude":"40.4375","longitude":"21.0813889"},"agia eleousa":{"city":"agia eleousa","accentcity":"Agía Eleoúsa","region":"19","population":null,"latitude":"39.2458333","longitude":"20.8344444"},"(( agia eleousa ))":{"city":"(( agia eleousa ))","accentcity":"(( Agía Eleoúsa ))","region":"25","population":null,"latitude":"39.6","longitude":"19.9"},"agia ermioni":{"city":"agia ermioni","accentcity":"Agía Ermióni","region":"50","population":null,"latitude":"38.3019444","longitude":"26.1472222"},"agia faneromeni":{"city":"agia faneromeni","accentcity":"Agía Faneroméni","region":"19","population":null,"latitude":"39.3169444","longitude":"20.8619444"},"agia foteini":{"city":"agia foteini","accentcity":"Agía Foteiní","region":"07","population":null,"latitude":"40.7133333","longitude":"22.0008333"},"agia kyriaki":{"city":"agia kyriaki","accentcity":"Agía Kyriakí","region":"48","population":null,"latitude":"37.6983333","longitude":"26.6186111"},"agia marina":{"city":"agia marina","accentcity":"Agía Marína","region":"51","population":null,"latitude":"39.0666667","longitude":"26.5833333"},"agia mavra":{"city":"agia mavra","accentcity":"Agía Mávra","region":"18","population":null,"latitude":"39.4861111","longitude":"20.4683333"},"agia paraskevi":{"city":"agia paraskevi","accentcity":"Agía Paraskeví","region":"51","population":null,"latitude":"39.2480556","longitude":"26.2716667"},"(( agia paraskevi ))":{"city":"(( agia paraskevi ))","accentcity":"(( Agía Paraskeví ))","region":"19","population":null,"latitude":"39.2833333","longitude":"20.7"},"agia pelagia":{"city":"agia pelagia","accentcity":"Agía Pelagía","region":"35","population":null,"latitude":"36.3333333","longitude":"22.9833333"},"agiasma":{"city":"agiasma","accentcity":"Agíasma","region":"14","population":null,"latitude":"40.9088889","longitude":"24.6572222"},"agiasmata":{"city":"agiasmata","accentcity":"Agiásmata","region":"50","population":null,"latitude":"38.5858333","longitude":"25.9377778"},"agiasos":{"city":"agiasos","accentcity":"Agiásos","region":"51","population":null,"latitude":"39.085","longitude":"26.37"},"agia sotira":{"city":"agia sotira","accentcity":"Agía Sotíra","region":"31","population":null,"latitude":"39.0519444","longitude":"21.1663889"},"agia thekla":{"city":"agia thekla","accentcity":"Agía Thékla","region":"27","population":null,"latitude":"38.25","longitude":"20.3833333"},"agia thekli":{"city":"agia thekli","accentcity":"Agía Thékli","region":"27","population":null,"latitude":"38.25","longitude":"20.3833333"},"agia triada":{"city":"agia triada","accentcity":"Agía Triáda","region":"31","population":null,"latitude":"39.1205556","longitude":"21.1905556"},"agia trias":{"city":"agia trias","accentcity":"Agía Triás","region":"31","population":null,"latitude":"39.0188889","longitude":"21.1988889"},"agia varvara":{"city":"agia varvara","accentcity":"Agía Varvára","region":"17","population":null,"latitude":"39.7372222","longitude":"21.0352778"},"agia zoni":{"city":"agia zoni","accentcity":"Agía Zóni","region":"48","population":null,"latitude":"37.7511111","longitude":"27.0055556"},"agiofyllo":{"city":"agiofyllo","accentcity":"Agiófyllo","region":"22","population":null,"latitude":"39.8613889","longitude":"21.5536111"},"agiofyllon":{"city":"agiofyllon","accentcity":"Agiófyllon","region":"22","population":null,"latitude":"39.8613889","longitude":"21.5536111"},"agioi":{"city":"agioi","accentcity":"Ágioi","region":"35","population":null,"latitude":"37.7694444","longitude":"23.5091667"},"agioi anargyroi":{"city":"agioi anargyroi","accentcity":"Ágioi Anárgyroi","region":"23","population":null,"latitude":"39.4352778","longitude":"21.8338889"},"agioi apostoloi":{"city":"agioi apostoloi","accentcity":"Ágioi Apóstoloi","region":"30","population":null,"latitude":"39.0919444","longitude":"21.8519444"},"agioi deka":{"city":"agioi deka","accentcity":"Ágioi Déka","region":"25","population":null,"latitude":"39.5558333","longitude":"19.8847222"},"agioi douloi":{"city":"agioi douloi","accentcity":"Ágioi Doúloi","region":"25","population":null,"latitude":"39.745","longitude":"19.7572222"},"(( agioi pantes ))":{"city":"(( agioi pantes ))","accentcity":"(( Ágioi Pántes ))","region":"17","population":null,"latitude":"39.5666667","longitude":"21.0516667"},"agioi pantes":{"city":"agioi pantes","accentcity":"Ágioi Pántes","region":"18","population":null,"latitude":"39.7197222","longitude":"20.3491667"},"agioi theodori":{"city":"agioi theodori","accentcity":"Ágioi Theódori","region":"48","population":null,"latitude":"37.7472222","longitude":"26.7286111"},"agioi theodoroi":{"city":"agioi theodoroi","accentcity":"Ágioi Theódoroi","region":"30","population":null,"latitude":"39.1494444","longitude":"21.6147222"},"(( agioi theodoroi ))":{"city":"(( agioi theodoroi ))","accentcity":"(( Ágioi Theódoroi ))","region":"17","population":null,"latitude":"39.4333333","longitude":"20.95"},"agioneri":{"city":"agioneri","accentcity":"Agionéri","region":"19","population":null,"latitude":"39.3225","longitude":"20.7916667"},"agion gala":{"city":"agion gala","accentcity":"Ágion Gála","region":"50","population":null,"latitude":"38.565","longitude":"25.8583333"},"agiopigi":{"city":"agiopigi","accentcity":"Agiopigí","region":"23","population":null,"latitude":"39.3183333","longitude":"21.9197222"},"agios achilleios":{"city":"agios achilleios","accentcity":"Ágios Achílleios","region":"08","population":null,"latitude":"40.7841667","longitude":"21.0808333"},"agios ahileos":{"city":"agios ahileos","accentcity":"Agios Ahileos","region":"08","population":null,"latitude":"40.7841667","longitude":"21.0808333"},"agios aimilianos":{"city":"agios aimilianos","accentcity":"Ágios Aimilianós","region":"50","population":null,"latitude":"38.2802778","longitude":"26.11"},"agios akakios":{"city":"agios akakios","accentcity":"Ágios Akákios","region":"23","population":null,"latitude":"39.3816667","longitude":"21.7719444"},"agios andreas":{"city":"agios andreas","accentcity":"Ágios Andréas","region":"17","population":null,"latitude":"39.4708333","longitude":"20.7086111"},"agios antonios":{"city":"agios antonios","accentcity":"Ágios Antónios","region":"47","population":null,"latitude":"36.4586111","longitude":"27.3186111"},"agios arsenios":{"city":"agios arsenios","accentcity":"Ágios Arsénios","region":"18","population":null,"latitude":"39.5375","longitude":"20.3994444"},"agios athanasios":{"city":"agios athanasios","accentcity":"Ágios Athanásios","region":"25","population":null,"latitude":"39.7338889","longitude":"19.7161111"},"agios charalampos":{"city":"agios charalampos","accentcity":"Ágios Charálampos","region":"20","population":null,"latitude":"39.2897222","longitude":"21.1286111"},"agios christofos":{"city":"agios christofos","accentcity":"Ágios Christófos","region":"17","population":null,"latitude":"39.4141667","longitude":"20.9191667"},"agios dimitrios":{"city":"agios dimitrios","accentcity":"Ágios Dimítrios","region":"48","population":null,"latitude":"37.8086111","longitude":"26.7388889"},"(( agios dimitrios ))":{"city":"(( agios dimitrios ))","accentcity":"(( Ágios Dimítrios ))","region":"20","population":null,"latitude":"39.4","longitude":"21.0833333"},"agios donatos":{"city":"agios donatos","accentcity":"Ágios Donátos","region":"18","population":null,"latitude":"39.4775","longitude":"20.5066667"},"agios fokas":{"city":"agios fokas","accentcity":"Ágios Fokás","region":"47","population":null,"latitude":"36.8616667","longitude":"27.3383333"},"agios georgios":{"city":"agios georgios","accentcity":"Ágios Geórgios","region":"50","population":null,"latitude":"38.4997222","longitude":"25.9863889"},"(( agios georgios ))":{"city":"(( agios georgios ))","accentcity":"(( Ágios Geórgios ))","region":"20","population":null,"latitude":"39.3666667","longitude":"21.2166667"},"agios georgios glykorrizou":{"city":"agios georgios glykorrizou","accentcity":"Ágios Geórgios Glykorrízou","region":"20","population":null,"latitude":"39.1","longitude":"21.0261111"},"agios georgios sykousis":{"city":"agios georgios sykousis","accentcity":"Ágios Geórgios Sykoúsis","region":"50","population":null,"latitude":"38.3188889","longitude":"26.0552778"},"agios ilias":{"city":"agios ilias","accentcity":"Ágios Ilías","region":"48","population":null,"latitude":"37.8066667","longitude":"26.7322222"},"agios ioanis gigenon":{"city":"agios ioanis gigenon","accentcity":"Agios Ioanis Gigenon","region":"16","population":null,"latitude":"40.3263889","longitude":"22.5258333"},"agios ioanis ofis":{"city":"agios ioanis ofis","accentcity":"Agios Ioanis Ofis","region":"16","population":null,"latitude":"40.3347222","longitude":"22.5255556"},"agios ioannis":{"city":"agios ioannis","accentcity":"Ágios Ioánnis","region":"50","population":null,"latitude":"38.2066667","longitude":"26.0702778"},"agios ioannis prodromos":{"city":"agios ioannis prodromos","accentcity":"Ágios Ioánnis Pródromos","region":"30","population":null,"latitude":"39.1836111","longitude":"21.4680556"},"agios isidoros":{"city":"agios isidoros","accentcity":"Ágios Isídoros","region":"50","population":null,"latitude":"38.4611111","longitude":"26.0269444"},"agios kirykos":{"city":"agios kirykos","accentcity":"Ágios Kírykos","region":"48","population":null,"latitude":"37.6147222","longitude":"26.2944444"},"agios konstantinos":{"city":"agios konstantinos","accentcity":"Ágios Konstantínos","region":"48","population":null,"latitude":"37.8058333","longitude":"26.8152778"},"agios kosmas":{"city":"agios kosmas","accentcity":"Ágios Kosmás","region":"17","population":null,"latitude":"39.67","longitude":"20.5897222"},"agios loukas":{"city":"agios loukas","accentcity":"Ágios Loukás","region":"07","population":null,"latitude":"40.7194444","longitude":"22.295"},"agios markos":{"city":"agios markos","accentcity":"Ágios Márkos","region":"25","population":null,"latitude":"39.7075","longitude":"19.8202778"},"agios matthaios":{"city":"agios matthaios","accentcity":"Ágios Matthaíos","region":"25","population":null,"latitude":"39.4958333","longitude":"19.8730556"},"agios merkourios":{"city":"agios merkourios","accentcity":"Ágios Merkoúrios","region":"11","population":null,"latitude":"40.2766667","longitude":"22.0852778"},"agios minas":{"city":"agios minas","accentcity":"Ágios Minás","region":"17","population":null,"latitude":"39.6955556","longitude":"21.0233333"},"agios nikolaos":{"city":"agios nikolaos","accentcity":"Ágios Nikólaos","region":"46","population":null,"latitude":"35.1913889","longitude":"25.7133333"},"(( agios nikolaos ))":{"city":"(( agios nikolaos ))","accentcity":"(( Ágios Nikólaos ))","region":"19","population":null,"latitude":"39.3333333","longitude":"20.9"},"agios panteleimon":{"city":"agios panteleimon","accentcity":"Agios Panteleimon","region":"48","population":null,"latitude":"37.7780556","longitude":"26.6733333"},"agios panteleimonas":{"city":"agios panteleimonas","accentcity":"Ágios Panteleímonas","region":"18","population":null,"latitude":"39.4377778","longitude":"20.3986111"},"agios pavlos":{"city":"agios pavlos","accentcity":"Ágios Pávlos","region":"13","population":null,"latitude":"40.6405556","longitude":"22.9594444"},"agios petros":{"city":"agios petros","accentcity":"Ágios Pétros","region":"26","population":null,"latitude":"38.6666667","longitude":"20.6"},"agios prokopios":{"city":"agios prokopios","accentcity":"Ágios Prokópios","region":"30","population":null,"latitude":"39.0180556","longitude":"21.555"},"agios rokkos":{"city":"agios rokkos","accentcity":"Ágios Rókkos","region":"25","population":null,"latitude":"39.6216667","longitude":"19.9186111"},"agios spyridon":{"city":"agios spyridon","accentcity":"Ágios Spyrídon","region":"25","population":null,"latitude":"39.6216667","longitude":"19.9186111"},"(( agios stefanos ))":{"city":"(( agios stefanos ))","accentcity":"(( Ágios Stéfanos ))","region":"17","population":null,"latitude":"39.55","longitude":"20.55"},"agios stefanos":{"city":"agios stefanos","accentcity":"Ágios Stéfanos","region":"47","population":null,"latitude":"36.7608333","longitude":"26.9961111"},"agios vasileios":{"city":"agios vasileios","accentcity":"Ágios Vasíleios","region":"20","population":null,"latitude":"39.2830556","longitude":"21.4208333"},"agios vissarion":{"city":"agios vissarion","accentcity":"Ágios Vissaríon","region":"22","population":null,"latitude":"39.4702778","longitude":"21.6180556"},"agios vlasios":{"city":"agios vlasios","accentcity":"Ágios Vlásios","region":"30","population":null,"latitude":"39.1202778","longitude":"21.4744444"},"agiou georgiou":{"city":"agiou georgiou","accentcity":"Agíou Georgíou","region":"19","population":null,"latitude":"39.2669444","longitude":"20.8533333"},"agiou nilolaou":{"city":"agiou nilolaou","accentcity":"Agíou Niloláou","region":"31","population":null,"latitude":"38.8666667","longitude":"20.8"},"agkathia":{"city":"agkathia","accentcity":"Agkathiá","region":"12","population":null,"latitude":"40.5558333","longitude":"22.4708333"},"aglavista":{"city":"aglavista","accentcity":"Aglavísta","region":"32","population":null,"latitude":"38.5333333","longitude":"22.1"},"aglavitsa":{"city":"aglavitsa","accentcity":"Aglavítsa","region":"32","population":null,"latitude":"38.5333333","longitude":"22.1"},"agloudhista":{"city":"agloudhista","accentcity":"Agloudhísta","region":"32","population":null,"latitude":"38.5333333","longitude":"22.1"},"agnanda":{"city":"agnanda","accentcity":"Ágnanda","region":"39","population":null,"latitude":"37.8166667","longitude":"21.6166667"},"agnanderi":{"city":"agnanderi","accentcity":"Agnanderí","region":"21","population":null,"latitude":"39.4166667","longitude":"22.6166667"},"agnanderon":{"city":"agnanderon","accentcity":"Agnanderón","region":"23","population":null,"latitude":"39.4872222","longitude":"21.8455556"},"agnandia":{"city":"agnandia","accentcity":"Agnandiá","region":"22","population":null,"latitude":"39.8675","longitude":"21.4655556"},"agnandi":{"city":"agnandi","accentcity":"Ágnandi","region":"29","population":null,"latitude":"38.7166667","longitude":"22.8833333"},"agnandion":{"city":"agnandion","accentcity":"Agnándion","region":"40","population":null,"latitude":"36.9","longitude":"21.8666667"},"agnanta":{"city":"agnanta","accentcity":"Ágnanta","region":"20","population":null,"latitude":"39.4741667","longitude":"21.0783333"},"agnantero":{"city":"agnantero","accentcity":"Agnanteró","region":"23","population":null,"latitude":"39.4872222","longitude":"21.8455556"},"agnanteron":{"city":"agnanteron","accentcity":"Agnanterón","region":"23","population":"1859","latitude":"39.4872222","longitude":"21.8455556"},"agnantia":{"city":"agnantia","accentcity":"Agnantiá","region":"22","population":null,"latitude":"39.8675","longitude":"21.4655556"},"agnantio":{"city":"agnantio","accentcity":"Agnantió","region":"40","population":null,"latitude":"36.9","longitude":"21.8666667"},"agnata":{"city":"agnata","accentcity":"Agnata","region":"39","population":null,"latitude":"37.8166667","longitude":"21.6166667"},"agni":{"city":"agni","accentcity":"Agní","region":"25","population":null,"latitude":"39.7361111","longitude":"19.9280556"},"agnitsasi":{"city":"agnitsasi","accentcity":"Agnítsasi","region":"25","population":null,"latitude":"39.7566667","longitude":"19.9302778"},"agnitsini":{"city":"agnitsini","accentcity":"Agnítsini","region":"25","population":null,"latitude":"39.7566667","longitude":"19.9302778"},"agno":{"city":"agno","accentcity":"Agnó","region":"45","population":null,"latitude":"35.25","longitude":"25.35"},"agora":{"city":"agora","accentcity":"Agorá","region":"18","population":null,"latitude":"39.3838889","longitude":"20.5675"},"agorelitsa":{"city":"agorelitsa","accentcity":"Agorélitsa","region":"40","population":null,"latitude":"37.05","longitude":"21.7"},"agoriani":{"city":"agoriani","accentcity":"Agóriani","region":"42","population":null,"latitude":"37.2","longitude":"22.2666667"},"agoryiani":{"city":"agoryiani","accentcity":"Agoryiani","region":"42","population":null,"latitude":"37.2","longitude":"22.2666667"},"agoulinitsa":{"city":"agoulinitsa","accentcity":"Agoulinítsa","region":"39","population":null,"latitude":"37.6333333","longitude":"21.5"},"agourelitsa":{"city":"agourelitsa","accentcity":"Agourélitsa","region":"40","population":null,"latitude":"37.05","longitude":"21.7"},"agova":{"city":"agova","accentcity":"Ágova","region":"36","population":null,"latitude":"37.6333333","longitude":"22.6833333"},"agoyia":{"city":"agoyia","accentcity":"Agóyia","region":"46","population":null,"latitude":"35.3333333","longitude":"25.6166667"},"agra":{"city":"agra","accentcity":"Ágra","region":"51","population":"983","latitude":"39.1666667","longitude":"26.0666667"},"agrafa":{"city":"agrafa","accentcity":"Ágrafa","region":"30","population":"820","latitude":"39.1372222","longitude":"21.65"},"agrafoi":{"city":"agrafoi","accentcity":"Agrafoí","region":"25","population":null,"latitude":"39.7633333","longitude":"19.7386111"},"(( agrambela ))":{"city":"(( agrambela ))","accentcity":"(( Agrámbela ))","region":"20","population":null,"latitude":"39.2166667","longitude":"21.35"},"agrambela":{"city":"agrambela","accentcity":"Agrámbela","region":"38","population":null,"latitude":"37.9333333","longitude":"21.85"},"agrapha":{"city":"agrapha","accentcity":"Agrapha","region":"30","population":null,"latitude":"39.1372222","longitude":"21.65"},"agrapidhia":{"city":"agrapidhia","accentcity":"Agrapidhiá","region":"29","population":null,"latitude":"39.2","longitude":"22.3333333"},"agrapidhokambos":{"city":"agrapidhokambos","accentcity":"Agrapidhókambos","region":"31","population":null,"latitude":"38.4","longitude":"21.7333333"},"agrapidhokhori":{"city":"agrapidhokhori","accentcity":"Agrapidhokhóri","region":"39","population":null,"latitude":"37.9","longitude":"21.5333333"},"agrapidhokhorion":{"city":"agrapidhokhorion","accentcity":"Agrapidhokhórion","region":"39","population":null,"latitude":"37.9","longitude":"21.5333333"},"agrapidhoula":{"city":"agrapidhoula","accentcity":"Agrapidhoúla","region":"42","population":null,"latitude":"37.1166667","longitude":"22.3833333"},"agrapidoula":{"city":"agrapidoula","accentcity":"Agrapidoúla","region":"42","population":null,"latitude":"37.1166667","longitude":"22.3833333"},"agras":{"city":"agras","accentcity":"Ágras","region":"07","population":"855","latitude":"40.805","longitude":"22.0005556"},"agrelia":{"city":"agrelia","accentcity":"Agreliá","region":"22","population":null,"latitude":"39.7191667","longitude":"21.9316667"},"agrelopon":{"city":"agrelopon","accentcity":"Agrelopón","region":"50","population":null,"latitude":"38.5822222","longitude":"25.97"},"agrelopos":{"city":"agrelopos","accentcity":"Agrelopós","region":"50","population":null,"latitude":"38.4747222","longitude":"26.1125"},"agria":{"city":"agria","accentcity":"Agriá","region":"24","population":"5519","latitude":"39.3333333","longitude":"23.0166667"},"agriakambos":{"city":"agriakambos","accentcity":"Agriakambos","region":"42","population":null,"latitude":"36.45","longitude":"22.4666667"},"agriakona":{"city":"agriakona","accentcity":"Agriakóna","region":"41","population":null,"latitude":"37.3166667","longitude":"22.2833333"},"agriana":{"city":"agriana","accentcity":"Agrianá","region":"45","population":null,"latitude":"35.3166667","longitude":"25.3666667"},"agriani":{"city":"agriani","accentcity":"Agrianí","region":"05","population":null,"latitude":"41.0833333","longitude":"23.8333333"},"agrianoi":{"city":"agrianoi","accentcity":"Agriánoi","region":"42","population":null,"latitude":"37.1333333","longitude":"22.5833333"},"agridhaiika":{"city":"agridhaiika","accentcity":"Agridhaíika","region":"38","population":null,"latitude":"38.2666667","longitude":"22.05"},"agridhaki":{"city":"agridhaki","accentcity":"Agridháki","region":"41","population":null,"latitude":"37.7166667","longitude":"22.15"},"agridhakion":{"city":"agridhakion","accentcity":"Agridhákion","region":"41","population":null,"latitude":"37.7166667","longitude":"22.15"},"agridheika":{"city":"agridheika","accentcity":"Agridhéïka","region":"38","population":null,"latitude":"38.2666667","longitude":"22.05"},"agridhia":{"city":"agridhia","accentcity":"Agrídhia","region":"44","population":null,"latitude":"35.3333333","longitude":"24.85"},"agridhi":{"city":"agridhi","accentcity":"Agrídhi","region":"38","population":null,"latitude":"38.0333333","longitude":"22.25"},"agridhion":{"city":"agridhion","accentcity":"Agrídhion","region":"41","population":null,"latitude":"37.7166667","longitude":"22.15"},"agridi":{"city":"agridi","accentcity":"Agrídi","region":"31","population":null,"latitude":"39.0405556","longitude":"21.2663889"},"agridion":{"city":"agridion","accentcity":"Agrídion","region":"31","population":null,"latitude":"39.0405556","longitude":"21.2663889"},"agrilea":{"city":"agrilea","accentcity":"Agriléa","region":"42","population":null,"latitude":"36.65","longitude":"22.4166667"},"agriles":{"city":"agriles","accentcity":"Agrilés","region":"43","population":null,"latitude":"35.3","longitude":"23.7833333"},"agrilia":{"city":"agrilia","accentcity":"Agriliá","region":"42","population":null,"latitude":"36.5833333","longitude":"22.4666667"},"agrili":{"city":"agrili","accentcity":"Agríli","region":"40","population":null,"latitude":"37.2166667","longitude":"21.6"},"agrilias":{"city":"agrilias","accentcity":"Agriliás","region":"27","population":null,"latitude":"38.45","longitude":"20.55"},"agrilidhi":{"city":"agrilidhi","accentcity":"Agrilídhi","region":"39","population":null,"latitude":"37.6","longitude":"21.9"},"agrilidhion":{"city":"agrilidhion","accentcity":"Agrilídhion","region":"39","population":null,"latitude":"37.6","longitude":"21.9"},"agrilios":{"city":"agrilios","accentcity":"Agriliós","region":"27","population":null,"latitude":"38.45","longitude":"20.55"},"agrillokhori":{"city":"agrillokhori","accentcity":"Agrillokhóri","region":"24","population":null,"latitude":"39.2166667","longitude":"22.6166667"},"agrilos":{"city":"agrilos","accentcity":"Ágrilos","region":"40","population":null,"latitude":"37.1333333","longitude":"22.0666667"},"agrilovounon":{"city":"agrilovounon","accentcity":"Agrilóvounon","region":"40","population":null,"latitude":"37.3","longitude":"21.95"},"agrinio":{"city":"agrinio","accentcity":"Agrínio","region":"31","population":null,"latitude":"38.6213889","longitude":"21.4077778"},"agrinion":{"city":"agrinion","accentcity":"Agrínion","region":"31","population":"43526","latitude":"38.6213889","longitude":"21.4077778"},"agriolevka":{"city":"agriolevka","accentcity":"Agriólevka","region":"05","population":null,"latitude":"41.25","longitude":"23.2833333"},"agriolevki":{"city":"agriolevki","accentcity":"Agriolévki","region":"05","population":null,"latitude":"41.25","longitude":"23.2833333"},"agriosikai":{"city":"agriosikai","accentcity":"Agriosikaí","region":"21","population":null,"latitude":"39.4166667","longitude":"22.4333333"},"agriosikea":{"city":"agriosikea","accentcity":"Agriosikéa","region":"27","population":null,"latitude":"38.6666667","longitude":"23.7833333"},"agriosikia":{"city":"agriosikia","accentcity":"Agriosikiá","region":"27","population":null,"latitude":"38.6666667","longitude":"23.7833333"},"agriosikies":{"city":"agriosikies","accentcity":"Agriosikiés","region":"21","population":null,"latitude":"39.4166667","longitude":"22.4333333"},"agriosykea":{"city":"agriosykea","accentcity":"Agriosykéa","region":"07","population":null,"latitude":"40.8413889","longitude":"22.4975"},"agriovotanon":{"city":"agriovotanon","accentcity":"Agriovótanon","region":"34","population":null,"latitude":"39.0166667","longitude":"23.3"},"agroilia":{"city":"agroilia","accentcity":"Agroiliá","region":"40","population":null,"latitude":"37.1333333","longitude":"22.0666667"},"agros":{"city":"agros","accentcity":"Agrós","region":"49","population":null,"latitude":"37.4166667","longitude":"24.9"},"agrosikea":{"city":"agrosikea","accentcity":"Agrosikéa","region":"27","population":null,"latitude":"38.6666667","longitude":"23.7833333"},"agrosikeai":{"city":"agrosikeai","accentcity":"Agrosikéai","region":"21","population":null,"latitude":"39.4166667","longitude":"22.4333333"},"agrosikia":{"city":"agrosikia","accentcity":"Agrosikiá","region":"27","population":null,"latitude":"38.6666667","longitude":"23.7833333"},"agrosykea":{"city":"agrosykea","accentcity":"Agrosykéa","region":"07","population":null,"latitude":"40.8413889","longitude":"22.4975"},"agrosykia":{"city":"agrosykia","accentcity":"Agrosykiá","region":"07","population":null,"latitude":"40.8413889","longitude":"22.4975"},"agrotikai filakai stavronikita":{"city":"agrotikai filakai stavronikita","accentcity":"Agrotikaí Filakaí Stavronikíta","region":"13","population":null,"latitude":"40.1166667","longitude":"23.3333333"},"agulinitza":{"city":"agulinitza","accentcity":"Agulinitza","region":"39","population":null,"latitude":"37.6333333","longitude":"21.5"},"agyia":{"city":"agyia","accentcity":"Agyia","region":"21","population":null,"latitude":"39.7177778","longitude":"22.7636111"},"ahil":{"city":"ahil","accentcity":"Ahil","region":"08","population":null,"latitude":"40.7841667","longitude":"21.0808333"},"ahill":{"city":"ahill","accentcity":"Ahill","region":"08","population":null,"latitude":"40.7841667","longitude":"21.0808333"},"ahlajikoi":{"city":"ahlajikoi","accentcity":"Ahlajíkoï","region":"01","population":null,"latitude":"41.2333333","longitude":"25.9333333"},"ahmetaga":{"city":"ahmetaga","accentcity":"Ahmetagá","region":"41","population":null,"latitude":"37.45","longitude":"22.45"},"aiandion":{"city":"aiandion","accentcity":"Aiándion","region":"35","population":null,"latitude":"37.9166667","longitude":"23.4666667"},"aiani":{"city":"aiani","accentcity":"Aianí","region":"11","population":"2119","latitude":"40.1666667","longitude":"21.8166667"},"aiantion":{"city":"aiantion","accentcity":"Aiántion","region":"35","population":"3936","latitude":"37.9166667","longitude":"23.4666667"},"aidhinion":{"city":"aidhinion","accentcity":"Aïdhínion","region":"40","population":null,"latitude":"37.1","longitude":"21.9666667"},"aidhipsos":{"city":"aidhipsos","accentcity":"Aidhipsós","region":"34","population":null,"latitude":"38.8833333","longitude":"23.05"},"aidhipsou":{"city":"aidhipsou","accentcity":"Aidhipsoú","region":"34","population":null,"latitude":"38.8833333","longitude":"23.05"},"aidhon":{"city":"aidhon","accentcity":"Aïdhón","region":"22","population":null,"latitude":"39.605","longitude":"21.4675"},"aidhonia":{"city":"aidhonia","accentcity":"Aïdhónia","region":"49","population":null,"latitude":"37.75","longitude":"24.95"},"aidhonion":{"city":"aidhonion","accentcity":"Aidhónion","region":"19","population":null,"latitude":"39.2636111","longitude":"20.6038889"},"aidhonoi":{"city":"aidhonoi","accentcity":"Aidhonoí","region":"43","population":null,"latitude":"35.2833333","longitude":"23.7666667"},"aidhonokastron":{"city":"aidhonokastron","accentcity":"Aïdhonókastron","region":"14","population":null,"latitude":"41.2666667","longitude":"24.4833333"},"aidhonokhori":{"city":"aidhonokhori","accentcity":"Aïdhonokhóri","region":"23","population":null,"latitude":"39.0944444","longitude":"21.97"},"aidhonokhorion":{"city":"aidhonokhorion","accentcity":"Aïdhonokhórion","region":"44","population":null,"latitude":"35.3166667","longitude":"24.9166667"},"aidon":{"city":"aidon","accentcity":"Aïdón","region":"22","population":null,"latitude":"39.605","longitude":"21.4675"},"aidonia":{"city":"aidonia","accentcity":"Aidoniá","region":"20","population":null,"latitude":"39.2927778","longitude":"21.4169444"},"aidoni":{"city":"aidoni","accentcity":"Aidóni","region":"19","population":null,"latitude":"39.2636111","longitude":"20.6038889"},"aidonion":{"city":"aidonion","accentcity":"Aidónion","region":"19","population":null,"latitude":"39.2636111","longitude":"20.6038889"},"aidonochori":{"city":"aidonochori","accentcity":"Aïdonochóri","region":"23","population":null,"latitude":"39.0944444","longitude":"21.97"},"aidonochorion":{"city":"aidonochorion","accentcity":"Aïdonochórion","region":"23","population":null,"latitude":"39.0944444","longitude":"21.97"},"aigaleo":{"city":"aigaleo","accentcity":"Aigáleo","region":"35","population":"72320","latitude":"37.9833333","longitude":"23.6833333"},"aigani":{"city":"aigani","accentcity":"Aigáni","region":"21","population":null,"latitude":"39.9533333","longitude":"22.6108333"},"aighion":{"city":"aighion","accentcity":"Aighion","region":"38","population":null,"latitude":"38.2486111","longitude":"22.0819444"},"aigialos":{"city":"aigialos","accentcity":"Aigialós","region":"27","population":null,"latitude":"38.2541667","longitude":"20.6513889"},"aigina":{"city":"aigina","accentcity":"Aígina","region":"35","population":null,"latitude":"37.7466667","longitude":"23.4275"},"aiginio":{"city":"aiginio","accentcity":"Aigínio","region":"16","population":null,"latitude":"40.5013889","longitude":"22.54"},"aiginion":{"city":"aiginion","accentcity":"Aigínion","region":"16","population":null,"latitude":"40.5013889","longitude":"22.54"},"aigio":{"city":"aigio","accentcity":"Aígio","region":"38","population":null,"latitude":"38.2486111","longitude":"22.0819444"},"aigion":{"city":"aigion","accentcity":"Aígion","region":"38","population":null,"latitude":"38.2486111","longitude":"22.0819444"},"aigosthaina":{"city":"aigosthaina","accentcity":"Aigósthaina","region":"33","population":null,"latitude":"38.15","longitude":"23.2333333"},"aigosthena":{"city":"aigosthena","accentcity":"Aigósthena","region":"33","population":null,"latitude":"38.15","longitude":"23.2333333"},"aikaterini":{"city":"aikaterini","accentcity":"Aikateríni","region":"16","population":null,"latitude":"40.2719444","longitude":"22.5025"},"aikirikos":{"city":"aikirikos","accentcity":"Aikiríkos","region":"43","population":null,"latitude":"35.25","longitude":"23.7833333"},"aikiryiannis":{"city":"aikiryiannis","accentcity":"Aïkiryiánnis","region":"43","population":null,"latitude":"35.4333333","longitude":"23.7"},"ail":{"city":"ail","accentcity":"Ail","region":"08","population":null,"latitude":"40.7841667","longitude":"21.0808333"},"ailias":{"city":"ailias","accentcity":"Aïliás","region":"09","population":null,"latitude":"40.3666667","longitude":"21.1833333"},"aimilianos":{"city":"aimilianos","accentcity":"Aimilianós","region":"10","population":null,"latitude":"39.9616667","longitude":"21.4394444"},"aimonas":{"city":"aimonas","accentcity":"Aimonas","region":"44","population":null,"latitude":"35.3333333","longitude":"24.8666667"},"aimonos":{"city":"aimonos","accentcity":"Aímonos","region":"44","population":null,"latitude":"35.3333333","longitude":"24.8666667"},"aipatia":{"city":"aipatia","accentcity":"Aïpátia","region":"49","population":null,"latitude":"37.75","longitude":"24.9333333"},"aipia":{"city":"aipia","accentcity":"Aípia","region":"40","population":null,"latitude":"37.1","longitude":"22.0333333"},"aira":{"city":"aira","accentcity":"Aira","region":"21","population":null,"latitude":"39.3833333","longitude":"22.3333333"},"ai seris":{"city":"ai seris","accentcity":"Áï Seris","region":"40","population":null,"latitude":"37.3166667","longitude":"21.7333333"},"aisimi":{"city":"aisimi","accentcity":"Aisími","region":"01","population":null,"latitude":"41.0166667","longitude":"25.95"},"aitania":{"city":"aitania","accentcity":"Aïtánia","region":"45","population":null,"latitude":"35.2666667","longitude":"25.2166667"},"aithaia":{"city":"aithaia","accentcity":"Aíthaia","region":"40","population":null,"latitude":"37.1","longitude":"22.05"},"aitolikon":{"city":"aitolikon","accentcity":"Aitolikón","region":"31","population":"4323","latitude":"38.4333333","longitude":"21.35"},"aivajik":{"city":"aivajik","accentcity":"Aïvajík","region":"03","population":null,"latitude":"41.2166667","longitude":"24.95"},"aivali":{"city":"aivali","accentcity":"Aïvalí","region":"21","population":null,"latitude":"39.35","longitude":"22.6166667"},"aivation":{"city":"aivation","accentcity":"Aïvátion","region":"13","population":null,"latitude":"40.7452778","longitude":"22.9786111"},"aivira":{"city":"aivira","accentcity":"Aívira","region":"38","population":null,"latitude":"38.15","longitude":"22.35"},"aiyai":{"city":"aiyai","accentcity":"Aiyaí","region":"38","population":null,"latitude":"38.1","longitude":"22.3666667"},"aiyiali":{"city":"aiyiali","accentcity":"Aiyiáli","region":"49","population":null,"latitude":"36.9","longitude":"25.9833333"},"aiyialos":{"city":"aiyialos","accentcity":"Aiyialós","region":"27","population":null,"latitude":"38.2541667","longitude":"20.6513889"},"aiyina":{"city":"aiyina","accentcity":"Aíyina","region":"35","population":"7823","latitude":"37.7466667","longitude":"23.4275"},"aiyinion":{"city":"aiyinion","accentcity":"Aiyínion","region":"16","population":"4275","latitude":"40.5013889","longitude":"22.54"},"aiyion":{"city":"aiyion","accentcity":"Aíyion","region":"38","population":"20665","latitude":"38.2486111","longitude":"22.0819444"},"aiyira":{"city":"aiyira","accentcity":"Aíyira","region":"38","population":"1666","latitude":"38.15","longitude":"22.35"},"aiyiros":{"city":"aiyiros","accentcity":"Aíyiros","region":"14","population":null,"latitude":"41.1166667","longitude":"24.35"},"aiyition":{"city":"aiyition","accentcity":"Aiyítion","region":"32","population":null,"latitude":"38.4833333","longitude":"22.1666667"},"aiylnion":{"city":"aiylnion","accentcity":"Aiylnion","region":"16","population":null,"latitude":"40.5013889","longitude":"22.54"},"ajios ahilios":{"city":"ajios ahilios","accentcity":"Ajios Ahilios","region":"08","population":null,"latitude":"40.7841667","longitude":"21.0808333"},"ajios athanasios":{"city":"ajios athanasios","accentcity":"Ajios Athanasios","region":"25","population":null,"latitude":"39.7338889","longitude":"19.7161111"},"ajios paraskevis":{"city":"ajios paraskevis","accentcity":"Ajios Paraskevis","region":"06","population":null,"latitude":"41.2661111","longitude":"22.8488889"},"akadhimi":{"city":"akadhimi","accentcity":"Akadhími","region":"49","population":null,"latitude":"37.0666667","longitude":"25.5"},"akadhimoi":{"city":"akadhimoi","accentcity":"Akádhimoi","region":"49","population":null,"latitude":"37.0666667","longitude":"25.5"},"akakiai":{"city":"akakiai","accentcity":"Akakíai","region":"06","population":null,"latitude":"41.2472222","longitude":"22.8072222"},"akakies":{"city":"akakies","accentcity":"Akakíes","region":"06","population":null,"latitude":"41.2472222","longitude":"22.8072222"},"akarpon":{"city":"akarpon","accentcity":"Ákarpon","region":"03","population":null,"latitude":"41.1333333","longitude":"24.9833333"},"ak-bunar":{"city":"ak-bunar","accentcity":"Ak-Bunár","region":"15","population":null,"latitude":"40.3666667","longitude":"23.2833333"},"akhadhokastron":{"city":"akhadhokastron","accentcity":"Akhadhókastron","region":"31","population":null,"latitude":"38.5833333","longitude":"21.75"},"akhaikon":{"city":"akhaikon","accentcity":"Akhaïkón","region":"38","population":null,"latitude":"38.1333333","longitude":"21.6"},"akhapsi":{"city":"akhapsi","accentcity":"Akhápsi","region":"49","population":null,"latitude":"37.1166667","longitude":"25.4166667"},"akharnai":{"city":"akharnai","accentcity":"Akharnaí","region":"35","population":"82376","latitude":"38.0833333","longitude":"23.7333333"},"akhatzikia":{"city":"akhatzikia","accentcity":"Akhatzikiá","region":"43","population":null,"latitude":"35.35","longitude":"24.1666667"},"akhelinadha":{"city":"akhelinadha","accentcity":"Akhelinádha","region":"22","population":null,"latitude":"39.825","longitude":"21.8711111"},"akhendria":{"city":"akhendria","accentcity":"Akhendriá","region":"45","population":null,"latitude":"34.9833333","longitude":"25.2166667"},"akhendrias":{"city":"akhendrias","accentcity":"Akhendriás","region":"45","population":null,"latitude":"34.9833333","longitude":"25.2166667"},"akherousia":{"city":"akherousia","accentcity":"Akherousía","region":"19","population":null,"latitude":"39.2577778","longitude":"20.5958333"},"akhil":{"city":"akhil","accentcity":"Akhíl","region":"08","population":null,"latitude":"40.7841667","longitude":"21.0808333"},"akhillio":{"city":"akhillio","accentcity":"Akhíllio","region":"24","population":null,"latitude":"39.0333333","longitude":"22.9666667"},"akhillion":{"city":"akhillion","accentcity":"Akhíllion","region":"42","population":null,"latitude":"36.4333333","longitude":"22.4833333"},"akhillion palace":{"city":"akhillion palace","accentcity":"Akhíllion Palace","region":"25","population":null,"latitude":"39.5644444","longitude":"19.905"},"akhinos":{"city":"akhinos","accentcity":"Akhinós","region":"23","population":"898","latitude":"38.9","longitude":"22.7333333"},"akhira":{"city":"akhira","accentcity":"Akhirá","region":"31","population":null,"latitude":"38.7833333","longitude":"21.0333333"},"akhirokhorion":{"city":"akhirokhorion","accentcity":"Akhirokhórion","region":"01","population":null,"latitude":"41.5833333","longitude":"26.5333333"},"akhiron":{"city":"akhiron","accentcity":"Akhirón","region":"51","population":null,"latitude":"39.2327778","longitude":"26.2080556"},"akhirones":{"city":"akhirones","accentcity":"Akhirónes","region":"29","population":null,"latitude":"38.9166667","longitude":"22.65"},"akhladeri":{"city":"akhladeri","accentcity":"Akhladeri","region":"35","population":null,"latitude":"38.4833333","longitude":"24.1666667"},"akhladha":{"city":"akhladha","accentcity":"Akhládha","region":"44","population":null,"latitude":"35.4","longitude":"24.9833333"},"akhladhai":{"city":"akhladhai","accentcity":"Akhládhai","region":"43","population":null,"latitude":"35.45","longitude":"24.0333333"},"akhladhaki":{"city":"akhladhaki","accentcity":"Akhladháki","region":"46","population":null,"latitude":"35.3166667","longitude":"25.65"},"akhladhea":{"city":"akhladhea","accentcity":"Akhladhéa","region":"38","population":null,"latitude":"38.2","longitude":"22.0833333"},"akhladheai":{"city":"akhladheai","accentcity":"Akhladhéai","region":"17","population":null,"latitude":"39.4522222","longitude":"20.7727778"},"akhladhe":{"city":"akhladhe","accentcity":"Akhladhé","region":"44","population":null,"latitude":"35.4","longitude":"24.7166667"},"akhladheri":{"city":"akhladheri","accentcity":"Akhladherí","region":"35","population":null,"latitude":"38.4833333","longitude":"24.1666667"},"akhladhes":{"city":"akhladhes","accentcity":"Akhladhés","region":"44","population":null,"latitude":"35.4","longitude":"24.7166667"},"akhladhia":{"city":"akhladhia","accentcity":"Akhládhia","region":"46","population":null,"latitude":"35.1666667","longitude":"26.05"},"akhladhi":{"city":"akhladhi","accentcity":"Akhládhi","region":"46","population":null,"latitude":"35.0333333","longitude":"26.15"},"akhladhiakies":{"city":"akhladhiakies","accentcity":"Akhladhiákies","region":"43","population":null,"latitude":"35.2833333","longitude":"23.7333333"},"akhladhias":{"city":"akhladhias","accentcity":"Akhladhiás","region":"04","population":null,"latitude":"41.4","longitude":"24.0166667"},"akhladhini":{"city":"akhladhini","accentcity":"Akhladhiní","region":"39","population":null,"latitude":"37.7333333","longitude":"21.7833333"},"akhladhion":{"city":"akhladhion","accentcity":"Akhládhion","region":"34","population":null,"latitude":"38.9","longitude":"23.4"},"akhladhokambos":{"city":"akhladhokambos","accentcity":"Akhladhókambos","region":"42","population":null,"latitude":"36.8833333","longitude":"22.9833333"},"akhladhokastron":{"city":"akhladhokastron","accentcity":"Akhladhókastron","region":"31","population":null,"latitude":"38.5833333","longitude":"21.75"},"akhladhokhori":{"city":"akhladhokhori","accentcity":"Akhladhokhóri","region":"40","population":null,"latitude":"36.9166667","longitude":"21.9"},"akhladhokhorion":{"city":"akhladhokhorion","accentcity":"Akhladhokhórion","region":"40","population":null,"latitude":"36.9166667","longitude":"21.9"},"akhladhomilea":{"city":"akhladhomilea","accentcity":"Akhladhomiléa","region":"04","population":null,"latitude":"41.4166667","longitude":"24.0"},"akhladhomilia":{"city":"akhladhomilia","accentcity":"Akhladhomiliá","region":"04","population":null,"latitude":"41.4166667","longitude":"24.0"},"akhladhomilies":{"city":"akhladhomilies","accentcity":"Akhladhomiliés","region":"04","population":null,"latitude":"41.4166667","longitude":"24.0"},"akhladokampo":{"city":"akhladokampo","accentcity":"Akhladokampo","region":"36","population":null,"latitude":"37.5166667","longitude":"22.5833333"},"akhomavron":{"city":"akhomavron","accentcity":"Akhómavron","region":"31","population":null,"latitude":"38.65","longitude":"21.55"},"akhomavros":{"city":"akhomavros","accentcity":"Akhómavros","region":"31","population":null,"latitude":"38.65","longitude":"21.55"},"akhoumatou":{"city":"akhoumatou","accentcity":"Akhoumátou","region":"42","population":null,"latitude":"36.8","longitude":"22.4833333"},"akhouria":{"city":"akhouria","accentcity":"Akhoúria","region":"42","population":null,"latitude":"37.25","longitude":"22.3333333"},"akhouria ayiou nikolaou":{"city":"akhouria ayiou nikolaou","accentcity":"Akhoúria Ayíou Nikoláou","region":"18","population":null,"latitude":"39.7030556","longitude":"20.3258333"},"akia":{"city":"akia","accentcity":"Ákia","region":"42","population":null,"latitude":"36.5833333","longitude":"22.4166667"},"akinjali":{"city":"akinjali","accentcity":"Akinjalí","region":"06","population":null,"latitude":"41.2494444","longitude":"22.7905556"},"akitsi":{"city":"akitsi","accentcity":"Ákitsi","region":"24","population":null,"latitude":"39.2666667","longitude":"22.75"},"akmanjali":{"city":"akmanjali","accentcity":"Akmanjalí","region":"13","population":null,"latitude":"40.3833333","longitude":"23.05"},"akoli":{"city":"akoli","accentcity":"Ákoli","region":"38","population":null,"latitude":"38.1833333","longitude":"21.95"},"akondion":{"city":"akondion","accentcity":"Akóndion","region":"33","population":null,"latitude":"38.5","longitude":"22.8833333"},"akontio":{"city":"akontio","accentcity":"Akóntio","region":"09","population":null,"latitude":"40.4919444","longitude":"21.0411111"},"akontion":{"city":"akontion","accentcity":"Akóntion","region":"09","population":null,"latitude":"40.4919444","longitude":"21.0411111"},"akoumia":{"city":"akoumia","accentcity":"Akoúmia","region":"44","population":null,"latitude":"35.1666667","longitude":"24.5833333"},"akova":{"city":"akova","accentcity":"Ákova","region":"36","population":null,"latitude":"37.6333333","longitude":"22.6833333"},"akovitika":{"city":"akovitika","accentcity":"Akovítika","region":"40","population":null,"latitude":"37.0333333","longitude":"22.0833333"},"akovo":{"city":"akovo","accentcity":"Ákovo","region":"36","population":null,"latitude":"37.6333333","longitude":"22.6833333"},"akovos":{"city":"akovos","accentcity":"Ákovos","region":"40","population":null,"latitude":"37.2","longitude":"22.1666667"},"akra":{"city":"akra","accentcity":"Ákra","region":"41","population":null,"latitude":"37.4833333","longitude":"22.4333333"},"akrai":{"city":"akrai","accentcity":"Ákrai","region":"27","population":null,"latitude":"38.65","longitude":"23.5833333"},"akraifnion":{"city":"akraifnion","accentcity":"Akraífnion","region":"33","population":"1195","latitude":"38.45","longitude":"23.2166667"},"akranea":{"city":"akranea","accentcity":"Akranéa","region":"07","population":null,"latitude":"40.8966667","longitude":"22.1494444"},"akrasion":{"city":"akrasion","accentcity":"Akrásion","region":"51","population":null,"latitude":"39.0263889","longitude":"26.3077778"},"akrata":{"city":"akrata","accentcity":"Akráta","region":"38","population":"1833","latitude":"38.15","longitude":"22.3166667"},"akres":{"city":"akres","accentcity":"Ákres","region":"27","population":null,"latitude":"38.65","longitude":"23.5833333"},"akria":{"city":"akria","accentcity":"Ákria","region":"45","population":null,"latitude":"35.0833333","longitude":"25.0833333"},"akri":{"city":"akri","accentcity":"Ákri","region":"21","population":null,"latitude":"39.9941667","longitude":"21.9619444"},"akrini":{"city":"akrini","accentcity":"Akriní","region":"11","population":"1113","latitude":"40.4333333","longitude":"21.9"},"akrino":{"city":"akrino","accentcity":"Akrinó","region":"21","population":null,"latitude":"39.7744444","longitude":"22.5119444"},"akrinon":{"city":"akrinon","accentcity":"Akrinón","region":"21","population":null,"latitude":"39.7744444","longitude":"22.5119444"},"akritas":{"city":"akritas","accentcity":"Akrítas","region":"08","population":null,"latitude":"40.8166667","longitude":"21.3"},"akritokhori":{"city":"akritokhori","accentcity":"Akritokhóri","region":"40","population":null,"latitude":"36.8","longitude":"21.8333333"},"akritokhorion":{"city":"akritokhorion","accentcity":"Akritokhórion","region":"40","population":null,"latitude":"36.8","longitude":"21.8333333"},"akrolimni":{"city":"akrolimni","accentcity":"Akrolímni","region":"07","population":"1398","latitude":"40.6791667","longitude":"22.2638889"},"akrolimnion":{"city":"akrolimnion","accentcity":"Akrolímnion","region":"06","population":null,"latitude":"41.2275","longitude":"22.79"},"akropotamia":{"city":"akropotamia","accentcity":"Akropotamiá","region":"20","population":null,"latitude":"39.0925","longitude":"21.02"},"akropotamos":{"city":"akropotamos","accentcity":"Akropótamos","region":"14","population":null,"latitude":"40.7833333","longitude":"24.0333333"},"akropotamou":{"city":"akropotamou","accentcity":"Akropotámou","region":"14","population":null,"latitude":"40.7833333","longitude":"24.0333333"},"akrosouvala":{"city":"akrosouvala","accentcity":"Akrosouvála","region":"27","population":null,"latitude":"38.6833333","longitude":"23.7666667"},"akrotiri":{"city":"akrotiri","accentcity":"Akrotíri","region":"49","population":null,"latitude":"36.35","longitude":"25.4"},"akrotirion":{"city":"akrotirion","accentcity":"Akrotírion","region":"51","population":null,"latitude":"39.0666667","longitude":"26.5666667"},"akrovo":{"city":"akrovo","accentcity":"Akrovo","region":"14","population":null,"latitude":"40.9","longitude":"24.2166667"},"akrovouni":{"city":"akrovouni","accentcity":"Akrovoúni","region":"14","population":null,"latitude":"40.9","longitude":"24.2166667"},"akrovounion":{"city":"akrovounion","accentcity":"Akrovoúnion","region":"14","population":null,"latitude":"40.9","longitude":"24.2166667"},"akroyialion":{"city":"akroyialion","accentcity":"Akroyiálion","region":"42","population":null,"latitude":"36.4833333","longitude":"22.5"},"ak-sakli":{"city":"ak-sakli","accentcity":"Ak-Saklí","region":"11","population":null,"latitude":"40.2833333","longitude":"21.9666667"},"aktaion":{"city":"aktaion","accentcity":"Aktaíon","region":"37","population":null,"latitude":"38.1333333","longitude":"22.4166667"},"aktoprak":{"city":"aktoprak","accentcity":"Aktoprák","region":"13","population":null,"latitude":"40.5833333","longitude":"23.4333333"},"aktounda":{"city":"aktounda","accentcity":"Aktoúnda","region":"44","population":null,"latitude":"35.1833333","longitude":"24.5333333"},"aladhinon":{"city":"aladhinon","accentcity":"Aladhinón","region":"49","population":null,"latitude":"37.8166667","longitude":"24.8833333"},"aladhinou vounou":{"city":"aladhinou vounou","accentcity":"Aladhinoú Vounoú","region":"49","population":null,"latitude":"37.8166667","longitude":"24.8833333"},"alaerma":{"city":"alaerma","accentcity":"Aláerma","region":"47","population":null,"latitude":"36.15","longitude":"27.95"},"alagni":{"city":"alagni","accentcity":"Alágni","region":"45","population":null,"latitude":"35.1833333","longitude":"25.2166667"},"alagnion":{"city":"alagnion","accentcity":"Alágnion","region":"45","population":null,"latitude":"35.1833333","longitude":"25.2166667"},"alagonia":{"city":"alagonia","accentcity":"Alagonía","region":"40","population":null,"latitude":"37.1166667","longitude":"22.25"},"alai":{"city":"alai","accentcity":"Aláï","region":"40","population":null,"latitude":"37.2333333","longitude":"22.0166667"},"alaibei":{"city":"alaibei","accentcity":"Alaibei","region":"42","population":null,"latitude":"36.8833333","longitude":"22.5666667"},"alaimbei":{"city":"alaimbei","accentcity":"Alaimbei","region":"42","population":null,"latitude":"36.85","longitude":"22.6833333"},"alaimbeis":{"city":"alaimbeis","accentcity":"Alaimbéïs","region":"42","population":null,"latitude":"36.8833333","longitude":"22.5666667"},"alalkomenai":{"city":"alalkomenai","accentcity":"Alalkomenaí","region":"33","population":null,"latitude":"38.4166667","longitude":"22.9833333"},"alamania":{"city":"alamania","accentcity":"Alamaniá","region":"49","population":null,"latitude":"37.7666667","longitude":"24.9333333"},"alamani":{"city":"alamani","accentcity":"Alamáni","region":"37","population":null,"latitude":"37.85","longitude":"22.9166667"},"alamannia":{"city":"alamannia","accentcity":"Alamanniá","region":"49","population":null,"latitude":"37.7666667","longitude":"24.9333333"},"alamannos":{"city":"alamannos","accentcity":"Alamánnos","region":"37","population":null,"latitude":"37.85","longitude":"22.9166667"},"alamanou":{"city":"alamanou","accentcity":"Alamánou","region":"37","population":null,"latitude":"37.85","longitude":"22.9166667"},"alanli":{"city":"alanli","accentcity":"Alanlí","region":"13","population":null,"latitude":"40.6333333","longitude":"23.35"},"alari":{"city":"alari","accentcity":"Álari","region":"07","population":null,"latitude":"40.7891667","longitude":"22.4583333"},"alataria":{"city":"alataria","accentcity":"Alatariá","region":"20","population":null,"latitude":"39.1983333","longitude":"21.3341667"},"alataries":{"city":"alataries","accentcity":"Alatariés","region":"22","population":null,"latitude":"39.4577778","longitude":"21.3194444"},"alatopetra":{"city":"alatopetra","accentcity":"Alatópetra","region":"10","population":null,"latitude":"40.0666667","longitude":"21.2166667"},"alatra":{"city":"alatra","accentcity":"Alatrá","region":"26","population":null,"latitude":"38.6833333","longitude":"20.6666667"},"alatro":{"city":"alatro","accentcity":"Álatro","region":"26","population":null,"latitude":"38.6833333","longitude":"20.6666667"},"alatron":{"city":"alatron","accentcity":"Álatron","region":"26","population":null,"latitude":"38.6833333","longitude":"20.6666667"},"albani":{"city":"albani","accentcity":"Albáni","region":"31","population":null,"latitude":"38.3666667","longitude":"21.6666667"},"alchak":{"city":"alchak","accentcity":"Alchák","region":"06","population":null,"latitude":"41.1011111","longitude":"22.4755556"},"alea":{"city":"alea","accentcity":"Aléa","region":"41","population":null,"latitude":"37.45","longitude":"22.4166667"},"alefaklar":{"city":"alefaklar","accentcity":"Alefaklár","region":"21","population":null,"latitude":"39.5666667","longitude":"22.75"},"aleimmatades":{"city":"aleimmatades","accentcity":"Aleimmatádes","region":"25","population":null,"latitude":"39.695","longitude":"19.7263889"},"alepochori":{"city":"alepochori","accentcity":"Alepochóri","region":"17","population":null,"latitude":"39.3619444","longitude":"20.7061111"},"alepochorion":{"city":"alepochorion","accentcity":"Alepochórion","region":"25","population":null,"latitude":"39.5566667","longitude":"19.8713889"},"alepokhori":{"city":"alepokhori","accentcity":"Alepokhóri","region":"42","population":null,"latitude":"36.95","longitude":"22.7666667"},"alepokhorion":{"city":"alepokhorion","accentcity":"Alepokhórion","region":"42","population":null,"latitude":"36.95","longitude":"22.7666667"},"alepokhorion botsari":{"city":"alepokhorion botsari","accentcity":"Alepokhórion Bótsari","region":"17","population":null,"latitude":"39.3619444","longitude":"20.7061111"},"alepospita":{"city":"alepospita","accentcity":"Alepóspita","region":"29","population":null,"latitude":"38.8333333","longitude":"22.4166667"},"alepou":{"city":"alepou","accentcity":"Alepoú","region":"25","population":"1640","latitude":"39.6102778","longitude":"19.8888889"},"alesia":{"city":"alesia","accentcity":"Alesía","region":"42","population":null,"latitude":"37.05","longitude":"22.4333333"},"alestaina":{"city":"alestaina","accentcity":"Aléstaina","region":"38","population":null,"latitude":"37.8833333","longitude":"21.9833333"},"alestia":{"city":"alestia","accentcity":"Aléstia","region":"30","population":null,"latitude":"38.8333333","longitude":"21.5833333"},"aletraiika":{"city":"aletraiika","accentcity":"Aletraíika","region":"39","population":null,"latitude":"37.95","longitude":"21.4166667"},"aletrouvari":{"city":"aletrouvari","accentcity":"Aletrouvári","region":"43","population":null,"latitude":"35.45","longitude":"24.0333333"},"aletrouvarion":{"city":"aletrouvarion","accentcity":"Aletrouvárion","region":"43","population":null,"latitude":"35.45","longitude":"24.0333333"},"alevradha":{"city":"alevradha","accentcity":"Alevrádha","region":"30","population":null,"latitude":"38.9333333","longitude":"21.4333333"},"alevrika":{"city":"alevrika","accentcity":"Alevriká","region":"46","population":null,"latitude":"35.2","longitude":"25.7"},"alevrou":{"city":"alevrou","accentcity":"Alevroú","region":"42","population":null,"latitude":"37.1833333","longitude":"22.3"},"alexandhra":{"city":"alexandhra","accentcity":"Alexándhra","region":"06","population":null,"latitude":"41.2491667","longitude":"22.8177778"},"alexandhradhes":{"city":"alexandhradhes","accentcity":"Alexandhrádhes","region":"35","population":null,"latitude":"36.2","longitude":"23.0"},"alexandhros":{"city":"alexandhros","accentcity":"Aléxandhros","region":"26","population":null,"latitude":"38.75","longitude":"20.6833333"},"alexandhroupolis":{"city":"alexandhroupolis","accentcity":"Alexandhroúpolis","region":"01","population":null,"latitude":"40.8475","longitude":"25.8744444"},"alexandra":{"city":"alexandra","accentcity":"Alexándra","region":"06","population":null,"latitude":"41.2491667","longitude":"22.8177778"},"alexandradhes":{"city":"alexandradhes","accentcity":"Alexandrádhes","region":"35","population":null,"latitude":"36.2","longitude":"23.0"},"alexandreia":{"city":"alexandreia","accentcity":"Alexándreia","region":"12","population":null,"latitude":"40.6266667","longitude":"22.4441667"},"alexandria":{"city":"alexandria","accentcity":"Alexándria","region":"12","population":"13665","latitude":"40.6266667","longitude":"22.4441667"},"alexandros":{"city":"alexandros","accentcity":"Aléxandros","region":"26","population":null,"latitude":"38.75","longitude":"20.6833333"},"alexandroupoli":{"city":"alexandroupoli","accentcity":"Alexandroúpoli","region":"01","population":"52978","latitude":"40.8475","longitude":"25.8744444"},"alexandroupolis":{"city":"alexandroupolis","accentcity":"Alexandroúpolis","region":"01","population":null,"latitude":"40.8475","longitude":"25.8744444"},"alexia":{"city":"alexia","accentcity":"Aléxia","region":"06","population":null,"latitude":"41.1141667","longitude":"22.8938889"},"alexi":{"city":"alexi","accentcity":"Aléxi","region":"34","population":null,"latitude":"38.0833333","longitude":"24.3333333"},"alexis":{"city":"alexis","accentcity":"Aléxis","region":"34","population":null,"latitude":"38.0833333","longitude":"24.3333333"},"alfa":{"city":"alfa","accentcity":"Alfá","region":"44","population":null,"latitude":"35.3666667","longitude":"24.6666667"},"alfas":{"city":"alfas","accentcity":"Álfas","region":"44","population":null,"latitude":"35.3666667","longitude":"24.6666667"},"alfios":{"city":"alfios","accentcity":"Alfiós","region":"39","population":null,"latitude":"37.65","longitude":"21.5"},"alfiousa":{"city":"alfiousa","accentcity":"Alfioúsa","region":"39","population":"1067","latitude":"37.65","longitude":"21.5333333"},"alia":{"city":"alia","accentcity":"Alía","region":"24","population":null,"latitude":"39.15","longitude":"22.75"},"aliaga":{"city":"aliaga","accentcity":"Alíaga","region":"41","population":null,"latitude":"37.3666667","longitude":"22.15"},"aliartos":{"city":"aliartos","accentcity":"Alíartos","region":"33","population":"4275","latitude":"38.3666667","longitude":"23.1"},"ali bei":{"city":"ali bei","accentcity":"Alí Béï","region":"20","population":null,"latitude":"39.085","longitude":"20.9508333"},"alichelepi":{"city":"alichelepi","accentcity":"Alichelepí","region":"40","population":null,"latitude":"37.25","longitude":"22.0"},"ali-chelepi":{"city":"ali-chelepi","accentcity":"Alí-Chelepí","region":"39","population":null,"latitude":"38.0833333","longitude":"21.3833333"},"alifaka":{"city":"alifaka","accentcity":"Alífaka","region":"29","population":null,"latitude":"39.0833333","longitude":"22.4166667"},"alifanda":{"city":"alifanda","accentcity":"Alifanda","region":"51","population":null,"latitude":"39.1","longitude":"26.5166667"},"alifira":{"city":"alifira","accentcity":"Alífira","region":"39","population":null,"latitude":"37.5333333","longitude":"21.85"},"alika":{"city":"alika","accentcity":"Álika","region":"42","population":null,"latitude":"36.4666667","longitude":"22.4333333"},"alikambos":{"city":"alikambos","accentcity":"Alíkambos","region":"43","population":null,"latitude":"35.35","longitude":"24.2"},"alikanas":{"city":"alikanas","accentcity":"Alikanás","region":"28","population":null,"latitude":"37.85","longitude":"20.7833333"},"alikanitaiika":{"city":"alikanitaiika","accentcity":"Alikanitaíika","region":"39","population":null,"latitude":"37.9833333","longitude":"21.2666667"},"alikarnassos":{"city":"alikarnassos","accentcity":"Alikarnassós","region":"45","population":null,"latitude":"35.3333333","longitude":"25.1666667"},"ali-khelepi":{"city":"ali-khelepi","accentcity":"Alí-Khelepí","region":"40","population":null,"latitude":"37.1","longitude":"21.9833333"},"aliki":{"city":"aliki","accentcity":"Alikí","region":"33","population":null,"latitude":"38.2","longitude":"23.05"},"alikianos":{"city":"alikianos","accentcity":"Alikianós","region":"43","population":null,"latitude":"35.45","longitude":"23.9166667"},"alikianou":{"city":"alikianou","accentcity":"Alikianoú","region":"43","population":null,"latitude":"35.45","longitude":"23.9166667"},"aliki dhomvrainis":{"city":"aliki dhomvrainis","accentcity":"Alikí Dhomvraínis","region":"33","population":null,"latitude":"38.2","longitude":"23.05"},"alikon":{"city":"alikon","accentcity":"Álikon","region":"01","population":null,"latitude":"41.2333333","longitude":"25.9333333"},"alikutuzi":{"city":"alikutuzi","accentcity":"Alikutúzi","region":"40","population":null,"latitude":"37.1166667","longitude":"21.7666667"},"alimaki":{"city":"alimaki","accentcity":"Alimáki","region":"40","population":null,"latitude":"37.2666667","longitude":"21.7666667"},"alimakion":{"city":"alimakion","accentcity":"Alimákion","region":"40","population":null,"latitude":"37.2666667","longitude":"21.7666667"},"alimia":{"city":"alimia","accentcity":"Alimiá","region":"47","population":null,"latitude":"36.25","longitude":"27.7166667"},"alimmatadhes":{"city":"alimmatadhes","accentcity":"Alimmatádhes","region":"25","population":null,"latitude":"39.695","longitude":"19.7263889"},"alimnia":{"city":"alimnia","accentcity":"Alimniá","region":"47","population":null,"latitude":"36.25","longitude":"27.7166667"},"alinda":{"city":"alinda","accentcity":"Álinda","region":"47","population":null,"latitude":"37.1666667","longitude":"26.8333333"},"alinna":{"city":"alinna","accentcity":"Alinna","region":"47","population":null,"latitude":"36.25","longitude":"27.7166667"},"alipayiana":{"city":"alipayiana","accentcity":"Alipayianá","region":"44","population":null,"latitude":"35.3833333","longitude":"24.6833333"},"alipokhori":{"city":"alipokhori","accentcity":"Alipokhóri","region":"25","population":null,"latitude":"39.5566667","longitude":"19.8713889"},"alipos":{"city":"alipos","accentcity":"Alípos","region":"42","population":null,"latitude":"36.6166667","longitude":"22.4833333"},"alisafi":{"city":"alisafi","accentcity":"Alisáfi","region":"30","population":null,"latitude":"39.0091667","longitude":"21.6955556"},"alissos":{"city":"alissos","accentcity":"Alissós","region":"38","population":null,"latitude":"38.1333333","longitude":"21.5833333"},"alistrati":{"city":"alistrati","accentcity":"Alistráti","region":"05","population":"2965","latitude":"41.0666667","longitude":"23.95"},"alithini":{"city":"alithini","accentcity":"Alithiní","region":"45","population":null,"latitude":"35.0166667","longitude":"24.8833333"},"alitselepi":{"city":"alitselepi","accentcity":"Alitselépi","region":"39","population":null,"latitude":"37.5666667","longitude":"21.5833333"},"ali tselepi":{"city":"ali tselepi","accentcity":"Alí Tselepí","region":"40","population":null,"latitude":"37.25","longitude":"22.0"},"alitsi":{"city":"alitsi","accentcity":"Alítsi","region":"21","population":null,"latitude":"39.5","longitude":"22.65"},"alitzani":{"city":"alitzani","accentcity":"Alitzaní","region":"45","population":null,"latitude":"35.1666667","longitude":"25.25"},"aliverion":{"city":"aliverion","accentcity":"Alivérion","region":"35","population":"5184","latitude":"38.4166667","longitude":"24.0333333"},"aliyi":{"city":"aliyi","accentcity":"Aliyi","region":"43","population":null,"latitude":"35.35","longitude":"23.6833333"},"aliyoi":{"city":"aliyoi","accentcity":"Aliyoí","region":"43","population":null,"latitude":"35.35","longitude":"23.6833333"},"alkhani":{"city":"alkhani","accentcity":"Alkhaní","region":"21","population":null,"latitude":"39.3666667","longitude":"22.5166667"},"alkion":{"city":"alkion","accentcity":"Alkión","region":"39","population":null,"latitude":"37.6666667","longitude":"21.3166667"},"alkioni":{"city":"alkioni","accentcity":"Alkióni","region":"03","population":null,"latitude":"41.0666667","longitude":"24.9166667"},"alkomenai":{"city":"alkomenai","accentcity":"Alkomenaí","region":"33","population":null,"latitude":"38.4166667","longitude":"22.9833333"},"allexi":{"city":"allexi","accentcity":"Alléxi","region":"34","population":null,"latitude":"38.0833333","longitude":"24.3333333"},"alli meria":{"city":"alli meria","accentcity":"Álli Meriá","region":"24","population":"1189","latitude":"39.3666667","longitude":"22.9833333"},"allitzani":{"city":"allitzani","accentcity":"Allitzáni","region":"45","population":null,"latitude":"35.1666667","longitude":"25.25"},"alma":{"city":"alma","accentcity":"Álma","region":"03","population":null,"latitude":"41.2166667","longitude":"24.8666667"},"almandar":{"city":"almandar","accentcity":"Almandár","region":"23","population":null,"latitude":"39.4166667","longitude":"22.1666667"},"almandarion":{"city":"almandarion","accentcity":"Almandárion","region":"23","population":null,"latitude":"39.4166667","longitude":"22.1666667"},"almbanis":{"city":"almbanis","accentcity":"Almbánis","region":"31","population":null,"latitude":"38.3666667","longitude":"21.6666667"},"almiridha":{"city":"almiridha","accentcity":"Almirídha","region":"43","population":null,"latitude":"35.45","longitude":"24.2"},"almiron":{"city":"almiron","accentcity":"Almirón","region":"40","population":null,"latitude":"37.0","longitude":"22.15"},"almiropotamos":{"city":"almiropotamos","accentcity":"Almiropótamos","region":"35","population":null,"latitude":"38.2666667","longitude":"24.1833333"},"almiros":{"city":"almiros","accentcity":"Almirós","region":"43","population":null,"latitude":"35.45","longitude":"24.2"},"almyros":{"city":"almyros","accentcity":"Almyrós","region":"24","population":null,"latitude":"39.1822222","longitude":"22.7594444"},"aloidhai":{"city":"aloidhai","accentcity":"Alóïdhai","region":"44","population":null,"latitude":"35.3666667","longitude":"24.8833333"},"aloidhes":{"city":"aloidhes","accentcity":"Alóïdhes","region":"44","population":null,"latitude":"35.3666667","longitude":"24.8833333"},"aloisianika":{"city":"aloisianika","accentcity":"Aloisiánika","region":"35","population":null,"latitude":"36.2666667","longitude":"22.9666667"},"aloizianika":{"city":"aloizianika","accentcity":"Aloïziánika","region":"35","population":null,"latitude":"36.2666667","longitude":"22.9666667"},"alona":{"city":"alona","accentcity":"Álona","region":"08","population":null,"latitude":"40.7833333","longitude":"21.3"},"alonai":{"city":"alonai","accentcity":"Alónai","region":"44","population":null,"latitude":"35.2333333","longitude":"24.35"},"alonakia":{"city":"alonakia","accentcity":"Alonákia","region":"11","population":null,"latitude":"40.3166667","longitude":"21.6666667"},"alonaki":{"city":"alonaki","accentcity":"Alonáki","region":"43","population":null,"latitude":"35.4166667","longitude":"24.0333333"},"alonakion":{"city":"alonakion","accentcity":"Alonákion","region":"43","population":null,"latitude":"35.4166667","longitude":"24.0333333"},"alonas":{"city":"alonas","accentcity":"Álonas","region":"08","population":null,"latitude":"40.7833333","longitude":"21.3"},"alones":{"city":"alones","accentcity":"Alónes","region":"44","population":null,"latitude":"35.2333333","longitude":"24.35"},"alonia":{"city":"alonia","accentcity":"Alónia","region":"40","population":null,"latitude":"37.1333333","longitude":"22.0166667"},"aloni":{"city":"aloni","accentcity":"Alóni","region":"20","population":null,"latitude":"39.4383333","longitude":"21.1261111"},"alonion":{"city":"alonion","accentcity":"Alónion","region":"20","population":null,"latitude":"39.4383333","longitude":"21.1261111"},"alonistaina":{"city":"alonistaina","accentcity":"Alonístaina","region":"41","population":null,"latitude":"37.6166667","longitude":"22.2166667"},"alonnisos":{"city":"alonnisos","accentcity":"Alónnisos","region":"24","population":null,"latitude":"39.15","longitude":"23.85"},"aloron":{"city":"aloron","accentcity":"Áloron","region":"07","population":null,"latitude":"40.9266667","longitude":"22.0852778"},"aloros":{"city":"aloros","accentcity":"Áloros","region":"12","population":null,"latitude":"40.5886111","longitude":"22.5958333"},"aloutoyiannaiika":{"city":"aloutoyiannaiika","accentcity":"Aloutoyiannaíika","region":"41","population":null,"latitude":"37.3833333","longitude":"22.65"},"alpokhori":{"city":"alpokhori","accentcity":"Alpokhóri","region":"39","population":null,"latitude":"37.7333333","longitude":"21.3833333"},"alpokhori-botsari":{"city":"alpokhori-botsari","accentcity":"Alpokhóri-Botsari","region":"17","population":null,"latitude":"39.3619444","longitude":"20.7061111"},"alpokhorion":{"city":"alpokhorion","accentcity":"Alpokhórion","region":"39","population":null,"latitude":"37.6166667","longitude":"21.5166667"},"alpospita":{"city":"alpospita","accentcity":"Alpóspita","region":"29","population":null,"latitude":"38.8333333","longitude":"22.4166667"},"alsos":{"city":"alsos","accentcity":"Álsos","region":"38","population":null,"latitude":"38.25","longitude":"21.9833333"},"altomira":{"city":"altomira","accentcity":"Altomirá","region":"40","population":null,"latitude":"36.9666667","longitude":"22.2333333"},"alt phaleron":{"city":"alt phaleron","accentcity":"Alt Phaleron","region":"35","population":null,"latitude":"37.9333333","longitude":"23.7"},"alvanitsa":{"city":"alvanitsa","accentcity":"Alvánitsa","region":"41","population":null,"latitude":"37.7","longitude":"21.95"},"alvena":{"city":"alvena","accentcity":"Alvena","region":"39","population":null,"latitude":"37.5","longitude":"21.7666667"},"alvina":{"city":"alvina","accentcity":"Álvina","region":"39","population":null,"latitude":"37.5","longitude":"21.7666667"},"alyfanta":{"city":"alyfanta","accentcity":"Alyfantá","region":"51","population":null,"latitude":"39.1","longitude":"26.5166667"},"alyki":{"city":"alyki","accentcity":"Alykí","region":"48","population":null,"latitude":"37.7191667","longitude":"27.0002778"},"alysafi":{"city":"alysafi","accentcity":"Alysáfi","region":"30","population":null,"latitude":"39.0091667","longitude":"21.6955556"},"alyssus":{"city":"alyssus","accentcity":"Alyssus","region":"38","population":null,"latitude":"38.1333333","longitude":"21.5833333"},"amades":{"city":"amades","accentcity":"Amádes","region":"50","population":null,"latitude":"38.5725","longitude":"26.0391667"},"amadhes":{"city":"amadhes","accentcity":"Amádhes","region":"50","population":null,"latitude":"38.5725","longitude":"26.0391667"},"amaliada":{"city":"amaliada","accentcity":"Amaliáda","region":"39","population":null,"latitude":"37.8","longitude":"21.35"},"amaliapoleos":{"city":"amaliapoleos","accentcity":"Amaliápoleos","region":"24","population":null,"latitude":"39.1666667","longitude":"22.8833333"},"amaliapoli":{"city":"amaliapoli","accentcity":"Amaliápoli","region":"24","population":null,"latitude":"39.1666667","longitude":"22.8833333"},"amalias":{"city":"amalias","accentcity":"Amaliás","region":"39","population":"19580","latitude":"37.8","longitude":"21.35"},"amaliota":{"city":"amaliota","accentcity":"Amalióta","region":"23","population":null,"latitude":"38.8833333","longitude":"22.2166667"},"amalo":{"city":"amalo","accentcity":"Amaló","region":"48","population":null,"latitude":"37.55","longitude":"26.0"},"amalon":{"city":"amalon","accentcity":"Amálon","region":"48","population":null,"latitude":"37.55","longitude":"26.0"},"amalota":{"city":"amalota","accentcity":"Amalóta","region":"23","population":null,"latitude":"38.8833333","longitude":"22.2166667"},"amaniou":{"city":"amaniou","accentcity":"Amanioú","region":"47","population":null,"latitude":"36.8452778","longitude":"27.1719444"},"amaranda":{"city":"amaranda","accentcity":"Amáranda","region":"06","population":null,"latitude":"41.1861111","longitude":"22.8094444"},"amarandon":{"city":"amarandon","accentcity":"Amárandon","region":"22","population":null,"latitude":"39.7005556","longitude":"21.3880556"},"amarandos":{"city":"amarandos","accentcity":"Amárandos","region":"17","population":null,"latitude":"40.1583333","longitude":"20.7288889"},"amaranta":{"city":"amaranta","accentcity":"Amáranta","region":"06","population":null,"latitude":"41.1861111","longitude":"22.8094444"},"amaranto":{"city":"amaranto","accentcity":"Amáranto","region":"22","population":null,"latitude":"39.7005556","longitude":"21.3880556"},"amaranton":{"city":"amaranton","accentcity":"Amáranton","region":"22","population":null,"latitude":"39.7005556","longitude":"21.3880556"},"amarantos":{"city":"amarantos","accentcity":"Amárantos","region":"23","population":null,"latitude":"39.2102778","longitude":"21.8602778"},"amari":{"city":"amari","accentcity":"Amári","region":"44","population":null,"latitude":"35.2211111","longitude":"24.6430556"},"amariana":{"city":"amariana","accentcity":"Amarianá","region":"45","population":null,"latitude":"35.1833333","longitude":"25.3666667"},"amarianon":{"city":"amarianon","accentcity":"Amarianón","region":"45","population":null,"latitude":"35.1833333","longitude":"25.3666667"},"amarianous":{"city":"amarianous","accentcity":"Amariánous","region":"31","population":null,"latitude":"38.8666667","longitude":"21.3666667"},"amarinthos":{"city":"amarinthos","accentcity":"Amárinthos","region":"34","population":"4360","latitude":"38.4","longitude":"23.8833333"},"amarion":{"city":"amarion","accentcity":"Amárion","region":"44","population":null,"latitude":"35.2211111","longitude":"24.6430556"},"amarlar":{"city":"amarlar","accentcity":"Amarlár","region":"23","population":null,"latitude":"39.2","longitude":"22.1"},"amarousion":{"city":"amarousion","accentcity":"Amaroúsion","region":"35","population":"72310","latitude":"38.05","longitude":"23.8"},"amathes":{"city":"amathes","accentcity":"Amathes","region":"50","population":null,"latitude":"38.5725","longitude":"26.0391667"},"amatovon":{"city":"amatovon","accentcity":"Amátovon","region":"06","population":null,"latitude":"40.8991667","longitude":"22.6222222"},"amaxadhes":{"city":"amaxadhes","accentcity":"Amaxádhes","region":"03","population":null,"latitude":"41.1166667","longitude":"25.0666667"},"ambalia":{"city":"ambalia","accentcity":"Ambália","region":"30","population":null,"latitude":"38.6666667","longitude":"21.7333333"},"ambares":{"city":"ambares","accentcity":"Ambáres","region":"30","population":null,"latitude":"39.0002778","longitude":"21.5547222"},"ambari":{"city":"ambari","accentcity":"Ambári","region":"39","population":null,"latitude":"37.6833333","longitude":"21.7833333"},"ambarion":{"city":"ambarion","accentcity":"Ambárion","region":"39","population":null,"latitude":"37.6833333","longitude":"21.7833333"},"ambela":{"city":"ambela","accentcity":"Ambelá","region":"27","population":null,"latitude":"38.1166667","longitude":"20.75"},"ambelakia":{"city":"ambelakia","accentcity":"Ambelákia","region":"35","population":"4671","latitude":"37.9513889","longitude":"23.5275"},"ambelaki":{"city":"ambelaki","accentcity":"Ambeláki","region":"44","population":null,"latitude":"35.2833333","longitude":"24.4833333"},"ambelakion":{"city":"ambelakion","accentcity":"Ambelákion","region":"44","population":null,"latitude":"35.2833333","longitude":"24.4833333"},"ambelakiotissa":{"city":"ambelakiotissa","accentcity":"Ambelakiótissa","region":"30","population":null,"latitude":"38.6166667","longitude":"21.8833333"},"ambelas":{"city":"ambelas","accentcity":"Ambelás","region":"27","population":null,"latitude":"38.1166667","longitude":"20.75"},"ambelia":{"city":"ambelia","accentcity":"Ambélia","region":"31","population":null,"latitude":"38.8166667","longitude":"21.4666667"},"ambeliai":{"city":"ambeliai","accentcity":"Ambelíai","region":"07","population":"1070","latitude":"40.8336111","longitude":"22.3786111"},"ambeli":{"city":"ambeli","accentcity":"Ambéli","region":"30","population":null,"latitude":"38.9833333","longitude":"21.4333333"},"ambelies":{"city":"ambelies","accentcity":"Ambeliés","region":"07","population":null,"latitude":"40.8336111","longitude":"22.3786111"},"ambeliko":{"city":"ambeliko","accentcity":"Ambelikó","region":"51","population":null,"latitude":"39.05","longitude":"26.3166667"},"ambelikon":{"city":"ambelikon","accentcity":"Ambelikón","region":"51","population":null,"latitude":"39.05","longitude":"26.3166667"},"ambeliona":{"city":"ambeliona","accentcity":"Ambelióna","region":"39","population":null,"latitude":"37.4333333","longitude":"21.95"},"ambelion":{"city":"ambelion","accentcity":"Ambélion","region":"30","population":null,"latitude":"38.9833333","longitude":"21.4333333"},"ambelofiton":{"city":"ambelofiton","accentcity":"Ambelófiton","region":"40","population":null,"latitude":"37.05","longitude":"21.7"},"ambeloi":{"city":"ambeloi","accentcity":"Ámbeloi","region":"06","population":"1118","latitude":"41.0","longitude":"23.3666667"},"ambelokambos":{"city":"ambelokambos","accentcity":"Ambelókambos","region":"39","population":null,"latitude":"37.8333333","longitude":"21.3"},"ambelokhori":{"city":"ambelokhori","accentcity":"Ambelokhóri","region":"33","population":null,"latitude":"38.3","longitude":"23.2666667"},"ambelokhorion":{"city":"ambelokhorion","accentcity":"Ambelokhórion","region":"33","population":null,"latitude":"38.3","longitude":"23.2666667"},"ambelokipoi":{"city":"ambelokipoi","accentcity":"Ambelókipoi","region":"40","population":null,"latitude":"36.9166667","longitude":"21.8333333"},"ambelon":{"city":"ambelon","accentcity":"Ambelón","region":"35","population":null,"latitude":"38.1833333","longitude":"24.0333333"},"ambelosalesi":{"city":"ambelosalesi","accentcity":"Ambelosálesi","region":"33","population":null,"latitude":"38.3","longitude":"23.2666667"},"ambelos":{"city":"ambelos","accentcity":"Ámbelos","region":"48","population":null,"latitude":"37.8011111","longitude":"26.8033333"},"ambelouzos":{"city":"ambelouzos","accentcity":"Ambeloúzos","region":"45","population":null,"latitude":"35.0666667","longitude":"24.9333333"},"ambliani":{"city":"ambliani","accentcity":"Ámbliani","region":"30","population":null,"latitude":"38.75","longitude":"21.9166667"},"ambonus":{"city":"ambonus","accentcity":"Ambonus","region":"47","population":null,"latitude":"36.2166667","longitude":"27.8666667"},"amelanda":{"city":"amelanda","accentcity":"Amélanda","region":"34","population":null,"latitude":"38.8666667","longitude":"23.3666667"},"amelandai":{"city":"amelandai","accentcity":"Amélandai","region":"34","population":null,"latitude":"38.8666667","longitude":"23.3666667"},"amelandes":{"city":"amelandes","accentcity":"Amélandes","region":"34","population":null,"latitude":"38.8666667","longitude":"23.3666667"},"amfia":{"city":"amfia","accentcity":"Ámfia","region":"40","population":null,"latitude":"37.1166667","longitude":"22.0666667"},"amfiklia":{"city":"amfiklia","accentcity":"Amfíklia","region":"33","population":"3674","latitude":"38.6333333","longitude":"22.5833333"},"amfilochia":{"city":"amfilochia","accentcity":"Amfilochía","region":"31","population":null,"latitude":"38.8594444","longitude":"21.1663889"},"amfilokhia":{"city":"amfilokhia","accentcity":"Amfilokhía","region":"31","population":"4023","latitude":"38.8594444","longitude":"21.1663889"},"amfipolis":{"city":"amfipolis","accentcity":"Amfípolis","region":"05","population":null,"latitude":"40.8333333","longitude":"23.85"},"amfissa":{"city":"amfissa","accentcity":"Ámfissa","region":"32","population":"6854","latitude":"38.525","longitude":"22.3730556"},"amfithea":{"city":"amfithea","accentcity":"Amfithéa","region":"37","population":null,"latitude":"38.05","longitude":"22.5333333"},"amfitriti":{"city":"amfitriti","accentcity":"Amfitríti","region":"01","population":null,"latitude":"40.9","longitude":"25.9166667"},"amigdhala":{"city":"amigdhala","accentcity":"Amigdhála","region":"46","population":null,"latitude":"35.2166667","longitude":"25.6"},"amigdhalea":{"city":"amigdhalea","accentcity":"Amigdhaléa","region":"46","population":null,"latitude":"35.3333333","longitude":"25.6333333"},"amigdhaleai":{"city":"amigdhaleai","accentcity":"Amigdhaléai","region":"39","population":null,"latitude":"37.5","longitude":"21.85"},"amigdhaleon":{"city":"amigdhaleon","accentcity":"Amigdhaleón","region":"14","population":null,"latitude":"40.9666667","longitude":"24.3666667"},"amigdhaleonas":{"city":"amigdhaleonas","accentcity":"Amigdhaleónas","region":"14","population":null,"latitude":"40.9666667","longitude":"24.3666667"},"amigdhalia":{"city":"amigdhalia","accentcity":"Amigdhaliá","region":"46","population":null,"latitude":"35.2166667","longitude":"25.6"},"amigdhali":{"city":"amigdhali","accentcity":"Amigdhalí","region":"39","population":null,"latitude":"37.8333333","longitude":"21.7666667"},"amigdhalias":{"city":"amigdhalias","accentcity":"Amigdhaliás","region":"11","population":null,"latitude":"40.25","longitude":"21.9"},"amigdhalies":{"city":"amigdhalies","accentcity":"Amigdhaliés","region":"39","population":null,"latitude":"37.5","longitude":"21.85"},"amigdhalitsa":{"city":"amigdhalitsa","accentcity":"Amigdhalítsa","region":"36","population":null,"latitude":"37.6833333","longitude":"22.8333333"},"amigdhaloi":{"city":"amigdhaloi","accentcity":"Amigdháloi","region":"46","population":null,"latitude":"35.2166667","longitude":"25.6"},"amigdhalokefali":{"city":"amigdhalokefali","accentcity":"Amigdhalokefáli","region":"43","population":null,"latitude":"35.3666667","longitude":"23.5666667"},"amigdhalokefalion":{"city":"amigdhalokefalion","accentcity":"AmigdhalokeFálion","region":"43","population":null,"latitude":"35.3666667","longitude":"23.5666667"},"amigdhalon":{"city":"amigdhalon","accentcity":"Amígdhalon","region":"24","population":null,"latitude":"39.15","longitude":"22.7166667"},"amigdhalos":{"city":"amigdhalos","accentcity":"Amigdhálos","region":"46","population":null,"latitude":"35.2166667","longitude":"25.6"},"amiklai":{"city":"amiklai","accentcity":"Amíklai","region":"42","population":null,"latitude":"37.0333333","longitude":"22.4333333"},"amindaion":{"city":"amindaion","accentcity":"Amíndaion","region":"07","population":null,"latitude":"40.6833333","longitude":"21.6833333"},"amira":{"city":"amira","accentcity":"Amirá","region":"45","population":null,"latitude":"35.05","longitude":"25.45"},"amiras":{"city":"amiras","accentcity":"Amirás","region":"45","population":null,"latitude":"35.05","longitude":"25.45"},"amisiana":{"city":"amisiana","accentcity":"Amisianá","region":"14","population":"1293","latitude":"40.9333333","longitude":"24.35"},"amisinon":{"city":"amisinon","accentcity":"Amisinón","region":"14","population":null,"latitude":"41.3166667","longitude":"24.5833333"},"ammokhorion":{"city":"ammokhorion","accentcity":"Ammokhórion","region":"08","population":"1192","latitude":"40.7833333","longitude":"21.4833333"},"ammolokhos":{"city":"ammolokhos","accentcity":"Ammólokhos","region":"49","population":null,"latitude":"37.9333333","longitude":"24.7666667"},"ammos":{"city":"ammos","accentcity":"Ámmos","region":"40","population":null,"latitude":"37.1","longitude":"22.0"},"ammos meryion":{"city":"ammos meryion","accentcity":"Ammos Méryion","region":"49","population":null,"latitude":"37.3833333","longitude":"24.4"},"ammotopos":{"city":"ammotopos","accentcity":"Ammótopos","region":"20","population":null,"latitude":"39.2711111","longitude":"20.9422222"},"ammoudari":{"city":"ammoudari","accentcity":"Ammoudári","region":"43","population":null,"latitude":"35.2833333","longitude":"24.1833333"},"ammoudarion":{"city":"ammoudarion","accentcity":"Ammoudárion","region":"43","population":null,"latitude":"35.2833333","longitude":"24.1833333"},"ammoudhara":{"city":"ammoudhara","accentcity":"Ammoudhára","region":"09","population":null,"latitude":"40.4166667","longitude":"21.2833333"},"ammoudharai":{"city":"ammoudharai","accentcity":"Ammoudhárai","region":"46","population":null,"latitude":"35.0","longitude":"25.6333333"},"ammoudhares":{"city":"ammoudhares","accentcity":"Ammoudháres","region":"46","population":null,"latitude":"35.0","longitude":"25.6333333"},"ammoudhari":{"city":"ammoudhari","accentcity":"Ammoudhári","region":"43","population":null,"latitude":"35.2833333","longitude":"24.1833333"},"ammoudharion":{"city":"ammoudharion","accentcity":"Ammoudhárion","region":"43","population":null,"latitude":"35.2833333","longitude":"24.1833333"},"ammoudheron":{"city":"ammoudheron","accentcity":"Ammoudherón","region":"40","population":null,"latitude":"37.1166667","longitude":"21.8333333"},"ammoudhia":{"city":"ammoudhia","accentcity":"Ammoudhiá","region":"22","population":null,"latitude":"39.5316667","longitude":"21.6866667"},"ammoudia":{"city":"ammoudia","accentcity":"Ammoudiá","region":"22","population":null,"latitude":"39.5316667","longitude":"21.6866667"},"ammouliani":{"city":"ammouliani","accentcity":"Ammoulianí","region":"15","population":null,"latitude":"40.3333333","longitude":"23.9166667"},"ammovounon":{"city":"ammovounon","accentcity":"Ammóvounon","region":"01","population":null,"latitude":"41.5833333","longitude":"26.2833333"},"amnatos":{"city":"amnatos","accentcity":"Amnátos","region":"44","population":null,"latitude":"35.3333333","longitude":"24.6166667"},"amoliani":{"city":"amoliani","accentcity":"Amolianí","region":"15","population":null,"latitude":"40.3333333","longitude":"23.9166667"},"amolokhos":{"city":"amolokhos","accentcity":"Amólokhos","region":"49","population":null,"latitude":"37.9333333","longitude":"24.7666667"},"amonaklios":{"city":"amonaklios","accentcity":"Amonakliós","region":"49","population":null,"latitude":"37.75","longitude":"24.95"},"amonakliou":{"city":"amonakliou","accentcity":"Amonaklioú","region":"49","population":null,"latitude":"37.75","longitude":"24.95"},"amorani":{"city":"amorani","accentcity":"Amórani","region":"31","population":null,"latitude":"38.5166667","longitude":"21.9166667"},"amorgos":{"city":"amorgos","accentcity":"Amorgós","region":"49","population":null,"latitude":"36.8333333","longitude":"25.9"},"amorion":{"city":"amorion","accentcity":"Amórion","region":"01","population":null,"latitude":"41.3","longitude":"26.4333333"},"amoryianoi":{"city":"amoryianoi","accentcity":"Amoryianoí","region":"31","population":null,"latitude":"38.8666667","longitude":"21.3666667"},"amoudhara":{"city":"amoudhara","accentcity":"Amoudhára","region":"09","population":null,"latitude":"40.4166667","longitude":"21.2833333"},"amoudhari":{"city":"amoudhari","accentcity":"Amoudhári","region":"43","population":null,"latitude":"35.2833333","longitude":"24.1833333"},