{"a-akna":{"city":"a-akna","accentcity":"Á-akna","region":"12","population":null,"latitude":"47.7166667","longitude":"18.7333333"},"aba":{"city":"aba","accentcity":"Aba","region":"08","population":"4479","latitude":"47.0333333","longitude":"18.5166667"},"abadi ret":{"city":"abadi ret","accentcity":"Abádi Rét","region":"20","population":null,"latitude":"47.5","longitude":"20.6166667"},"abadszalok":{"city":"abadszalok","accentcity":"Abádszalók","region":"20","population":"4654","latitude":"47.4666667","longitude":"20.6"},"abaliget":{"city":"abaliget","accentcity":"Abaliget","region":"02","population":null,"latitude":"46.15","longitude":"18.1166667"},"abapuszta":{"city":"abapuszta","accentcity":"Abapuszta","region":"18","population":null,"latitude":"47.7","longitude":"21.8833333"},"abasar":{"city":"abasar","accentcity":"Abasár","region":"11","population":"3189","latitude":"47.8","longitude":"20.0"},"abaujalpar":{"city":"abaujalpar","accentcity":"Abaújalpár","region":"04","population":null,"latitude":"48.3166667","longitude":"21.2333333"},"abaujdevecser":{"city":"abaujdevecser","accentcity":"Abaújdevecser","region":"04","population":null,"latitude":"48.3333333","longitude":"21.1333333"},"abaujker":{"city":"abaujker","accentcity":"Abaújkér","region":"04","population":null,"latitude":"48.3","longitude":"21.2"},"abaujlak":{"city":"abaujlak","accentcity":"Abaújlak","region":"04","population":null,"latitude":"48.4","longitude":"20.9666667"},"abaujsap":{"city":"abaujsap","accentcity":"Abaújsáp","region":"04","population":null,"latitude":"48.3166667","longitude":"21.0"},"abaujszanto":{"city":"abaujszanto","accentcity":"Abaújszántó","region":"04","population":"3366","latitude":"48.2833333","longitude":"21.2"},"abaujszolnok":{"city":"abaujszolnok","accentcity":"Abaújszolnok","region":"04","population":null,"latitude":"48.3666667","longitude":"20.9833333"},"abaujvar":{"city":"abaujvar","accentcity":"Abaújvár","region":"04","population":null,"latitude":"48.5333333","longitude":"21.3166667"},"abda":{"city":"abda","accentcity":"Abda","region":"09","population":"2997","latitude":"47.7","longitude":"17.55"},"abod":{"city":"abod","accentcity":"Abod","region":"04","population":null,"latitude":"48.4","longitude":"20.8"},"abony":{"city":"abony","accentcity":"Abony","region":"16","population":"16342","latitude":"47.1833333","longitude":"20.0"},"abonyiuti tanyak":{"city":"abonyiuti tanyak","accentcity":"Abonyiúti Tanyák","region":"16","population":null,"latitude":"47.3333333","longitude":"19.8833333"},"abrahamhegy":{"city":"abrahamhegy","accentcity":"Ábrahámhegy","region":"23","population":null,"latitude":"46.8166667","longitude":"17.5666667"},"abrahamtelek":{"city":"abrahamtelek","accentcity":"Ábrahámtelek","region":"16","population":null,"latitude":"47.3","longitude":"19.9"},"abrahamtelep":{"city":"abrahamtelep","accentcity":"Ábrahámtelep","region":"16","population":null,"latitude":"47.3","longitude":"19.9"},"abrand":{"city":"abrand","accentcity":"Ábránd","region":"18","population":null,"latitude":"47.8833333","longitude":"22.1"},"abranytanya":{"city":"abranytanya","accentcity":"Ábránytanya","region":"18","population":null,"latitude":"48.05","longitude":"22.75"},"acsa":{"city":"acsa","accentcity":"Acsa","region":"16","population":null,"latitude":"47.8","longitude":"19.3833333"},"acs":{"city":"acs","accentcity":"Ács","region":"12","population":"7180","latitude":"47.7","longitude":"18.0166667"},"acsad":{"city":"acsad","accentcity":"Acsád","region":"22","population":null,"latitude":"47.3166667","longitude":"16.7333333"},"acsadi malom":{"city":"acsadi malom","accentcity":"Acsádi Malom","region":"22","population":null,"latitude":"47.35","longitude":"16.75"},"acsalag":{"city":"acsalag","accentcity":"Acsalag","region":"09","population":null,"latitude":"47.6833333","longitude":"17.2"},"acsas":{"city":"acsas","accentcity":"Ácsás","region":"10","population":null,"latitude":"47.15","longitude":"21.5166667"},"acsaspuszta":{"city":"acsaspuszta","accentcity":"Acsáspuszta","region":"10","population":null,"latitude":"47.15","longitude":"21.5166667"},"acsaujlak":{"city":"acsaujlak","accentcity":"Acsaújlak","region":"16","population":null,"latitude":"47.8166667","longitude":"19.3833333"},"acsaujlak-puszta":{"city":"acsaujlak-puszta","accentcity":"Acsaújlak-puszta","region":"16","population":null,"latitude":"47.8166667","longitude":"19.3833333"},"acsi csoszhaz":{"city":"acsi csoszhaz","accentcity":"Acsi Csoszhaz","region":"01","population":null,"latitude":"46.6833333","longitude":"19.1666667"},"acstanya":{"city":"acstanya","accentcity":"Ácstanya","region":"16","population":null,"latitude":"47.3833333","longitude":"19.2333333"},"acsteszer":{"city":"acsteszer","accentcity":"Ácsteszér","region":"12","population":null,"latitude":"47.4","longitude":"18.0166667"},"acsteszeripuszta":{"city":"acsteszeripuszta","accentcity":"Ácsteszéripuszta","region":"12","population":null,"latitude":"47.4166667","longitude":"18.0333333"},"acsteszer-puszta":{"city":"acsteszer-puszta","accentcity":"Ácsteszér-puszta","region":"12","population":null,"latitude":"47.4166667","longitude":"18.0333333"},"adacs":{"city":"adacs","accentcity":"Adács","region":"11","population":"2890","latitude":"47.7","longitude":"19.9833333"},"adacsierdo":{"city":"adacsierdo","accentcity":"Adacsierdo","region":"01","population":null,"latitude":"46.95","longitude":"19.3666667"},"adamdulo":{"city":"adamdulo","accentcity":"Adamdulo","region":"10","population":null,"latitude":"47.45","longitude":"21.4"},"adamhegy":{"city":"adamhegy","accentcity":"Ádámhegy","region":"24","population":null,"latitude":"46.4833333","longitude":"17.05"},"adammajor":{"city":"adammajor","accentcity":"Ádámmajor","region":"12","population":null,"latitude":"47.7166667","longitude":"18.3333333"},"adam-puszta":{"city":"adam-puszta","accentcity":"Ádám-puszta","region":"10","population":null,"latitude":"47.2166667","longitude":"21.85"},"adamtanya":{"city":"adamtanya","accentcity":"Ádámtanya","region":"20","population":null,"latitude":"47.6166667","longitude":"20.7666667"},"adand":{"city":"adand","accentcity":"Ádánd","region":"17","population":"2306","latitude":"46.8666667","longitude":"18.1666667"},"adasztevel":{"city":"adasztevel","accentcity":"Adásztevel","region":"23","population":null,"latitude":"47.3","longitude":"17.55"},"adlerszollos":{"city":"adlerszollos","accentcity":"Adlerszollos","region":"11","population":null,"latitude":"47.6","longitude":"20.2833333"},"adolfmajor":{"city":"adolfmajor","accentcity":"Adolfmajor","region":"24","population":null,"latitude":"47.0166667","longitude":"17.0833333"},"adony":{"city":"adony","accentcity":"Adony","region":"08","population":"3812","latitude":"47.1166667","longitude":"18.8666667"},"adorjanpuszta":{"city":"adorjanpuszta","accentcity":"Adorjánpuszta","region":"21","population":null,"latitude":"46.6333333","longitude":"18.35"},"adorjantanya":{"city":"adorjantanya","accentcity":"Adorjántanya","region":"04","population":null,"latitude":"47.95","longitude":"20.85"},"adorjanujtelep":{"city":"adorjanujtelep","accentcity":"Adorjánújtelep","region":"21","population":null,"latitude":"46.6333333","longitude":"18.2833333"},"adorjas":{"city":"adorjas","accentcity":"Adorjás","region":"02","population":null,"latitude":"45.8505556","longitude":"18.0627778"},"adriantelep":{"city":"adriantelep","accentcity":"Adriántelep","region":"04","population":null,"latitude":"48.1666667","longitude":"20.6333333"},"adrienne-puszta":{"city":"adrienne-puszta","accentcity":"Adríenne-puszta","region":"14","population":null,"latitude":"47.8333333","longitude":"19.4166667"},"adyliget":{"city":"adyliget","accentcity":"Adyliget","region":"05","population":null,"latitude":"47.55","longitude":"18.9333333"},"afrikamajor":{"city":"afrikamajor","accentcity":"Afrikamajor","region":"22","population":null,"latitude":"47.2833333","longitude":"16.7833333"},"ag":{"city":"ag","accentcity":"Ág","region":"02","population":null,"latitude":"46.2833333","longitude":"18.2"},"agard":{"city":"agard","accentcity":"Agárd","region":"08","population":null,"latitude":"47.1833333","longitude":"18.6166667"},"agardidulo":{"city":"agardidulo","accentcity":"Agardidulo","region":"11","population":null,"latitude":"47.9","longitude":"20.35"},"agardi villatelep":{"city":"agardi villatelep","accentcity":"Agárdi Villatelep","region":"08","population":null,"latitude":"47.2","longitude":"18.6333333"},"agardivolgy":{"city":"agardivolgy","accentcity":"Agárdivölgy","region":"21","population":null,"latitude":"46.35","longitude":"18.7"},"agardpuszta":{"city":"agardpuszta","accentcity":"Agárdpuszta","region":"08","population":null,"latitude":"47.1833333","longitude":"18.6166667"},"agardytelep":{"city":"agardytelep","accentcity":"Agárdytelep","region":"01","population":null,"latitude":"46.8166667","longitude":"19.3833333"},"agarhalom":{"city":"agarhalom","accentcity":"Agárhalom","region":"01","population":null,"latitude":"46.6166667","longitude":"19.2833333"},"agasegyhaza":{"city":"agasegyhaza","accentcity":"Ágasegyháza","region":"01","population":"1898","latitude":"46.8333333","longitude":"19.45"},"agasegyhazi tanyak":{"city":"agasegyhazi tanyak","accentcity":"Ágasegyházi Tanyák","region":"01","population":null,"latitude":"46.85","longitude":"19.4166667"},"agaserdo":{"city":"agaserdo","accentcity":"Agaserdo","region":"02","population":null,"latitude":"46.0833333","longitude":"18.7833333"},"agasto":{"city":"agasto","accentcity":"Ágastó","region":"21","population":null,"latitude":"46.1333333","longitude":"18.7833333"},"agasvar":{"city":"agasvar","accentcity":"Ágasvár","region":"21","population":null,"latitude":"47.9333333","longitude":"19.8333333"},"agerdo":{"city":"agerdo","accentcity":"Agerdo","region":"18","population":null,"latitude":"47.7666667","longitude":"22.4333333"},"agerdomajor":{"city":"agerdomajor","accentcity":"Agerdomajor","region":"18","population":null,"latitude":"47.7666667","longitude":"22.4333333"},"agfalva":{"city":"agfalva","accentcity":"Ágfalva","region":"09","population":"1971","latitude":"47.6833333","longitude":"16.5166667"},"aggato":{"city":"aggato","accentcity":"Aggató","region":"17","population":null,"latitude":"46.7","longitude":"17.3"},"aggszentpeter":{"city":"aggszentpeter","accentcity":"Aggszentpéter","region":"08","population":null,"latitude":"47.2166667","longitude":"18.8"},"aggtelek":{"city":"aggtelek","accentcity":"Aggtelek","region":"04","population":null,"latitude":"48.4666667","longitude":"20.5166667"},"aghely":{"city":"aghely","accentcity":"Ághely","region":"09","population":null,"latitude":"47.55","longitude":"17.4166667"},"agnesakna":{"city":"agnesakna","accentcity":"Ágnesakna","region":"12","population":null,"latitude":"47.7166667","longitude":"18.7333333"},"agnesforras":{"city":"agnesforras","accentcity":"Ágnesforrás","region":"08","population":null,"latitude":"47.25","longitude":"18.3333333"},"agnesmajor":{"city":"agnesmajor","accentcity":"Ágnesmajor","region":"08","population":null,"latitude":"47.2166667","longitude":"18.25"},"ago":{"city":"ago","accentcity":"Ágó","region":"13","population":null,"latitude":"48.1","longitude":"20.5833333"},"agocpuszta":{"city":"agocpuszta","accentcity":"Ágócpuszta","region":"04","population":null,"latitude":"48.3333333","longitude":"21.6666667"},"agoctanya":{"city":"agoctanya","accentcity":"Ágóctanya","region":"04","population":null,"latitude":"48.3333333","longitude":"21.6666667"},"agoi patakdulo":{"city":"agoi patakdulo","accentcity":"Agoi Patakdulo","region":"20","population":null,"latitude":"47.6","longitude":"19.8666667"},"agoiretdulo":{"city":"agoiretdulo","accentcity":"Agoiretdulo","region":"20","population":null,"latitude":"47.6","longitude":"19.8666667"},"agoi szollo":{"city":"agoi szollo","accentcity":"Agoi Szollo","region":"20","population":null,"latitude":"47.6","longitude":"19.8666667"},"agostmajor":{"city":"agostmajor","accentcity":"Ágostmajor","region":"08","population":null,"latitude":"46.95","longitude":"18.4833333"},"agostonhalom":{"city":"agostonhalom","accentcity":"Ágostonhalom","region":"06","population":null,"latitude":"46.2666667","longitude":"20.4333333"},"agostonmajor":{"city":"agostonmajor","accentcity":"Ágostonmajor","region":"23","population":null,"latitude":"47.05","longitude":"17.7833333"},"agostonpuszta":{"city":"agostonpuszta","accentcity":"Ágostonpuszta","region":"21","population":null,"latitude":"46.3833333","longitude":"18.7"},"agostontanya":{"city":"agostontanya","accentcity":"Ágostontanya","region":"04","population":null,"latitude":"47.85","longitude":"20.5833333"},"agostyan":{"city":"agostyan","accentcity":"Ágostyán","region":"12","population":null,"latitude":"47.65","longitude":"18.3166667"},"agotazug":{"city":"agotazug","accentcity":"Ágotazug","region":"10","population":null,"latitude":"47.3666667","longitude":"21.0833333"},"agraregyetem":{"city":"agraregyetem","accentcity":"Agráregyetem","region":"07","population":null,"latitude":"47.6","longitude":"21.65"},"agtanya":{"city":"agtanya","accentcity":"Ágtanya","region":"16","population":null,"latitude":"47.1666667","longitude":"19.3333333"},"agyagbanya":{"city":"agyagbanya","accentcity":"Agyagbánya","region":"16","population":null,"latitude":"47.35","longitude":"19.45"},"agyaglika":{"city":"agyaglika","accentcity":"Agyaglika","region":"23","population":null,"latitude":"46.9","longitude":"17.7"},"agyaglik":{"city":"agyaglik","accentcity":"Agyaglik","region":"23","population":null,"latitude":"46.9","longitude":"17.7"},"agyagoskert":{"city":"agyagoskert","accentcity":"Agyagoskert","region":"20","population":null,"latitude":"47.3166667","longitude":"20.9333333"},"agyagosszergeny":{"city":"agyagosszergeny","accentcity":"Agyagosszergény","region":"09","population":null,"latitude":"47.6166667","longitude":"16.95"},"ajak":{"city":"ajak","accentcity":"Ajak","region":"18","population":"3983","latitude":"48.1833333","longitude":"22.0666667"},"ajaki tanya":{"city":"ajaki tanya","accentcity":"Ajaki Tanya","region":"18","population":null,"latitude":"48.1833333","longitude":"22.0666667"},"ajka":{"city":"ajka","accentcity":"Ajka","region":"23","population":"31407","latitude":"47.1","longitude":"17.5666667"},"ajkai tanyak":{"city":"ajkai tanyak","accentcity":"Ajkai Tanyák","region":"23","population":null,"latitude":"47.1","longitude":"17.5666667"},"ajkarendek":{"city":"ajkarendek","accentcity":"Ajkarendek","region":"23","population":null,"latitude":"47.1","longitude":"17.5666667"},"ajkarendeki tanyak":{"city":"ajkarendeki tanyak","accentcity":"Ajkarendeki Tanyák","region":"23","population":null,"latitude":"47.1333333","longitude":"17.5666667"},"ajkarendek tanyak":{"city":"ajkarendek tanyak","accentcity":"Ajkarendek Tanyák","region":"23","population":null,"latitude":"47.1333333","longitude":"17.5666667"},"ajmaniczadulo":{"city":"ajmaniczadulo","accentcity":"Ajmaniczadulo","region":"16","population":null,"latitude":"47.6166667","longitude":"19.05"},"ajtos":{"city":"ajtos","accentcity":"Ajtós","region":"20","population":null,"latitude":"47.4333333","longitude":"20.8"},"ajtoshat":{"city":"ajtoshat","accentcity":"Ajtóshát","region":"20","population":null,"latitude":"47.3833333","longitude":"20.4833333"},"aka":{"city":"aka","accentcity":"Aka","region":"12","population":null,"latitude":"47.4","longitude":"18.0666667"},"akacaslok":{"city":"akacaslok","accentcity":"Akácáslók","region":"17","population":null,"latitude":"46.4","longitude":"17.5666667"},"akacasmajor":{"city":"akacasmajor","accentcity":"Akácásmajor","region":"23","population":null,"latitude":"47.4666667","longitude":"17.7333333"},"akacdulo":{"city":"akacdulo","accentcity":"Akacdulo","region":"10","population":null,"latitude":"47.45","longitude":"21.4"},"akademiafold":{"city":"akademiafold","accentcity":"Akadémiaföld","region":"20","population":null,"latitude":"47.15","longitude":"20.0833333"},"akademia-tanya":{"city":"akademia-tanya","accentcity":"Akadémia-tanya","region":"16","population":null,"latitude":"47.15","longitude":"20.0333333"},"akademia tanyaja":{"city":"akademia tanyaja","accentcity":"Akadémia Tanyája","region":"16","population":null,"latitude":"47.15","longitude":"20.0333333"},"akalacs":{"city":"akalacs","accentcity":"Akalacs","region":"21","population":null,"latitude":"46.6666667","longitude":"18.75"},"akali":{"city":"akali","accentcity":"Akali","region":"23","population":null,"latitude":"46.8833333","longitude":"17.75"},"akarattya":{"city":"akarattya","accentcity":"Akarattya","region":"23","population":null,"latitude":"47.0166667","longitude":"18.1666667"},"akaszto":{"city":"akaszto","accentcity":"Akasztó","region":"20","population":null,"latitude":"47.1666667","longitude":"20.35"},"akasztodomb":{"city":"akasztodomb","accentcity":"Akasztódomb","region":"23","population":null,"latitude":"46.8","longitude":"17.4333333"},"akasztodulo":{"city":"akasztodulo","accentcity":"Akasztodulo","region":"20","population":null,"latitude":"47.1666667","longitude":"20.35"},"akasztofadulo":{"city":"akasztofadulo","accentcity":"Akasztofadulo","region":"02","population":null,"latitude":"45.85","longitude":"18.3"},"akasztofahegy":{"city":"akasztofahegy","accentcity":"Akasztófahegy","region":"10","population":null,"latitude":"47.5333333","longitude":"21.9"},"akasztohegy":{"city":"akasztohegy","accentcity":"Akasztóhegy","region":"20","population":null,"latitude":"46.85","longitude":"20.0666667"},"akasztohegyi szollo":{"city":"akasztohegyi szollo","accentcity":"Akasztohegyi Szollo","region":"20","population":null,"latitude":"46.85","longitude":"20.0666667"},"akasztoi tanya":{"city":"akasztoi tanya","accentcity":"Akasztói Tanya","region":"01","population":null,"latitude":"46.7666667","longitude":"19.3"},"aklipuszta":{"city":"aklipuszta","accentcity":"Aklipuszta","region":"23","population":null,"latitude":"47.2333333","longitude":"17.8333333"},"aklos":{"city":"aklos","accentcity":"Aklos","region":"03","population":null,"latitude":"47.0166667","longitude":"21.1833333"},"akna":{"city":"akna","accentcity":"Akna","region":"23","population":null,"latitude":"47.0833333","longitude":"17.6"},"akohegy":{"city":"akohegy","accentcity":"Akóhegy","region":"08","population":null,"latitude":"46.8333333","longitude":"18.8333333"},"akol":{"city":"akol","accentcity":"Akol","region":"02","population":null,"latitude":"45.8166667","longitude":"18.3333333"},"akoldulo":{"city":"akoldulo","accentcity":"Akoldulo","region":"10","population":null,"latitude":"47.45","longitude":"21.4"},"akolhat":{"city":"akolhat","accentcity":"Akolhát","region":"11","population":null,"latitude":"47.45","longitude":"20.4166667"},"akolhati puszta":{"city":"akolhati puszta","accentcity":"Akolháti Puszta","region":"11","population":null,"latitude":"47.45","longitude":"20.4166667"},"akolmajor":{"city":"akolmajor","accentcity":"Akolmajor","region":"06","population":null,"latitude":"46.65","longitude":"20.1"},"alacska":{"city":"alacska","accentcity":"Alacska","region":"04","population":null,"latitude":"48.2166667","longitude":"20.65"},"alacskai-koszenbanyatelep":{"city":"alacskai-koszenbanyatelep","accentcity":"Alacskai-Koszenbanyatelep","region":"04","population":null,"latitude":"48.2333333","longitude":"20.6333333"},"alacskaiszenbanya":{"city":"alacskaiszenbanya","accentcity":"Alacskaiszénbánya","region":"04","population":null,"latitude":"48.2333333","longitude":"20.6333333"},"aladarmajor":{"city":"aladarmajor","accentcity":"Aladármajor","region":"08","population":null,"latitude":"47.0833333","longitude":"18.8166667"},"alag":{"city":"alag","accentcity":"Alag","region":"16","population":null,"latitude":"47.6333333","longitude":"19.15"},"alagi major":{"city":"alagi major","accentcity":"Alagi Major","region":"16","population":null,"latitude":"47.6","longitude":"19.15"},"alajarodulo":{"city":"alajarodulo","accentcity":"Alajarodulo","region":"08","population":null,"latitude":"46.9833333","longitude":"18.9333333"},"alajaroduloi tanyak":{"city":"alajaroduloi tanyak","accentcity":"Alajaroduloi Tanyak","region":"08","population":null,"latitude":"46.9833333","longitude":"18.9333333"},"alajoshazatanya":{"city":"alajoshazatanya","accentcity":"Alajosházatanya","region":"04","population":null,"latitude":"47.8833333","longitude":"20.6666667"},"alap":{"city":"alap","accentcity":"Alap","region":"08","population":"2149","latitude":"46.8","longitude":"18.7"},"alapi resz":{"city":"alapi resz","accentcity":"Alapi Rész","region":"08","population":null,"latitude":"46.7833333","longitude":"18.7333333"},"alatka":{"city":"alatka","accentcity":"Alatka","region":"20","population":null,"latitude":"47.2166667","longitude":"20.4"},"alatkaoldal":{"city":"alatkaoldal","accentcity":"Alatkaoldal","region":"20","population":null,"latitude":"47.2166667","longitude":"20.4"},"alattyan":{"city":"alattyan","accentcity":"Alattyán","region":"20","population":"2004","latitude":"47.4333333","longitude":"20.05"},"albertakna":{"city":"albertakna","accentcity":"Albertakna","region":"14","population":null,"latitude":"48.1166667","longitude":"19.75"},"albertfalva":{"city":"albertfalva","accentcity":"Albertfalva","region":"05","population":null,"latitude":"47.45","longitude":"19.0333333"},"alberti":{"city":"alberti","accentcity":"Alberti","region":"16","population":null,"latitude":"47.25","longitude":"19.6166667"},"albertirsa":{"city":"albertirsa","accentcity":"Albertirsa","region":"16","population":"11864","latitude":"47.25","longitude":"19.6166667"},"albertirsai tanyak":{"city":"albertirsai tanyak","accentcity":"Albertirsai Tanyák","region":"16","population":null,"latitude":"47.25","longitude":"19.6166667"},"albertkazmerpuszta":{"city":"albertkazmerpuszta","accentcity":"Albertkázmérpuszta","region":"09","population":null,"latitude":"47.8666667","longitude":"17.0333333"},"albertmajor":{"city":"albertmajor","accentcity":"Albertmajor","region":"11","population":null,"latitude":"47.8166667","longitude":"20.35"},"albert-telep":{"city":"albert-telep","accentcity":"Albert-telep","region":"14","population":null,"latitude":"48.1166667","longitude":"19.75"},"alcsimillerlapos":{"city":"alcsimillerlapos","accentcity":"Alcsimillérlapos","region":"20","population":null,"latitude":"47.1833333","longitude":"20.2"},"alcsipuszta":{"city":"alcsipuszta","accentcity":"Alcsipuszta","region":"20","population":null,"latitude":"47.2","longitude":"20.2333333"},"alcsisziget":{"city":"alcsisziget","accentcity":"Alcsisziget","region":"20","population":null,"latitude":"47.15","longitude":"20.2333333"},"alcsut":{"city":"alcsut","accentcity":"Alcsút","region":"08","population":null,"latitude":"47.4166667","longitude":"18.6166667"},"alcsutdoboz":{"city":"alcsutdoboz","accentcity":"Alcsútdoboz","region":"08","population":null,"latitude":"47.4166667","longitude":"18.6166667"},"aldebro":{"city":"aldebro","accentcity":"Aldebro","region":"11","population":null,"latitude":"47.8","longitude":"20.2333333"},"aldozo":{"city":"aldozo","accentcity":"Áldozó","region":"11","population":null,"latitude":"47.9333333","longitude":"19.9833333"},"alekszandrapuszta":{"city":"alekszandrapuszta","accentcity":"Alekszandrapuszta","region":"17","population":null,"latitude":"46.0833333","longitude":"17.5"},"alexandra-puszta":{"city":"alexandra-puszta","accentcity":"Alexandra-puszta","region":"17","population":null,"latitude":"46.0833333","longitude":"17.5"},"alfaritanya":{"city":"alfaritanya","accentcity":"Alfaritanya","region":"09","population":null,"latitude":"47.7333333","longitude":"17.3833333"},"alfoldszallas":{"city":"alfoldszallas","accentcity":"Alföldszállás","region":"21","population":null,"latitude":"46.2833333","longitude":"18.7666667"},"alfoldszallasok":{"city":"alfoldszallasok","accentcity":"Alföldszállások","region":"21","population":null,"latitude":"46.2833333","longitude":"18.7666667"},"algyo":{"city":"algyo","accentcity":"Algyo","region":"19","population":null,"latitude":"46.25","longitude":"20.1666667"},"alibanfa":{"city":"alibanfa","accentcity":"Alibánfa","region":"24","population":null,"latitude":"46.8833333","longitude":"16.9333333"},"alice-major":{"city":"alice-major","accentcity":"Alice-major","region":"24","population":null,"latitude":"46.75","longitude":"16.9"},"aligvarda":{"city":"aligvarda","accentcity":"Aligvárda","region":"01","population":null,"latitude":"46.1833333","longitude":"18.9666667"},"aligvarhegy":{"city":"aligvarhegy","accentcity":"Aligvárhegy","region":"24","population":null,"latitude":"46.55","longitude":"17.1"},"aligvarihegy":{"city":"aligvarihegy","accentcity":"Aligvárihegy","region":"24","population":null,"latitude":"46.55","longitude":"17.1"},"aligvarimajor":{"city":"aligvarimajor","accentcity":"Aligvárimajor","region":"23","population":null,"latitude":"46.8333333","longitude":"17.5333333"},"aligvaritanya":{"city":"aligvaritanya","accentcity":"Aligváritanya","region":"02","population":null,"latitude":"45.95","longitude":"17.9"},"aligvarmajor":{"city":"aligvarmajor","accentcity":"Aligvármajor","region":"24","population":null,"latitude":"46.4833333","longitude":"16.65"},"aligvarom":{"city":"aligvarom","accentcity":"Aligvárom","region":"17","population":null,"latitude":"46.5833333","longitude":"17.6666667"},"aligvaromhegy":{"city":"aligvaromhegy","accentcity":"Aligváromhegy","region":"17","population":null,"latitude":"46.5833333","longitude":"17.6666667"},"aligvaromi szollo":{"city":"aligvaromi szollo","accentcity":"Aligvaromi Szollo","region":"17","population":null,"latitude":"46.6","longitude":"17.6333333"},"aligvaromtelep":{"city":"aligvaromtelep","accentcity":"Aligváromtelep","region":"08","population":null,"latitude":"46.8333333","longitude":"18.8333333"},"alimantanya":{"city":"alimantanya","accentcity":"Alimántanya","region":"24","population":null,"latitude":"47.1","longitude":"21.6333333"},"alivar":{"city":"alivar","accentcity":"Alivár","region":"17","population":null,"latitude":"46.3833333","longitude":"17.2166667"},"alizmajor":{"city":"alizmajor","accentcity":"Alizmajor","region":"24","population":null,"latitude":"46.75","longitude":"16.9"},"allami csemetekert":{"city":"allami csemetekert","accentcity":"Állami Csemetekert","region":"18","population":null,"latitude":"47.8666667","longitude":"21.85"},"allami erdo":{"city":"allami erdo","accentcity":"Allami Erdo","region":"18","population":null,"latitude":"46.1","longitude":"21.9833333"},"allami erdogazdasag":{"city":"allami erdogazdasag","accentcity":"Allami Erdogazdasag","region":"18","population":null,"latitude":"46.1","longitude":"21.9833333"},"allami erdotanya":{"city":"allami erdotanya","accentcity":"Allami Erdotanya","region":"18","population":null,"latitude":"48.2166667","longitude":"22.15"},"allami gazdakepzo":{"city":"allami gazdakepzo","accentcity":"Allami Gazdakepzo","region":"01","population":null,"latitude":"47.0166667","longitude":"19.0833333"},"allami malom":{"city":"allami malom","accentcity":"Állami Malom","region":"22","population":null,"latitude":"47.35","longitude":"16.85"},"allami szollotelep":{"city":"allami szollotelep","accentcity":"Allami Szollotelep","region":"23","population":null,"latitude":"46.9833333","longitude":"17.9666667"},"allampuszta":{"city":"allampuszta","accentcity":"Állampuszta","region":"01","population":null,"latitude":"46.7166667","longitude":"19.0666667"},"allaskut":{"city":"allaskut","accentcity":"Álláskút","region":"17","population":null,"latitude":"46.4833333","longitude":"17.65"},"allomasszogdulo":{"city":"allomasszogdulo","accentcity":"Allomasszogdulo","region":"20","population":null,"latitude":"47.5666667","longitude":"20.0166667"},"allomastanya":{"city":"allomastanya","accentcity":"Állomástanya","region":"16","population":null,"latitude":"47.2","longitude":"19.0166667"},"allomastelep":{"city":"allomastelep","accentcity":"Állomástelep","region":"18","population":null,"latitude":"48.0333333","longitude":"21.4666667"},"almagyardulo":{"city":"almagyardulo","accentcity":"Almagyardulo","region":"11","population":null,"latitude":"47.9","longitude":"20.3833333"},"almahegy":{"city":"almahegy","accentcity":"Almahegy","region":"17","population":null,"latitude":"46.8166667","longitude":"17.8666667"},"almajor":{"city":"almajor","accentcity":"Almajor","region":"08","population":null,"latitude":"46.7666667","longitude":"18.6166667"},"almamellek":{"city":"almamellek","accentcity":"Almamellék","region":"02","population":null,"latitude":"46.15","longitude":"17.8833333"},"almar":{"city":"almar","accentcity":"Almár","region":"11","population":null,"latitude":"47.95","longitude":"20.3666667"},"almari csoszhaz":{"city":"almari csoszhaz","accentcity":"Almari Csoszhaz","region":"03","population":null,"latitude":"46.8","longitude":"21.3"},"almas":{"city":"almas","accentcity":"Almás","region":"21","population":null,"latitude":"46.3","longitude":"18.6833333"},"almasfuzito":{"city":"almasfuzito","accentcity":"Almasfuzito","region":"12","population":"2348","latitude":"47.7166667","longitude":"18.2666667"},"almasgodor":{"city":"almasgodor","accentcity":"Almásgödör","region":"02","population":null,"latitude":"46.1666667","longitude":"18.4166667"},"almashaza":{"city":"almashaza","accentcity":"Almásháza","region":"24","population":null,"latitude":"46.85","longitude":"17.05"},"almasikut-puszta":{"city":"almasikut-puszta","accentcity":"Almásikut-puszta","region":"14","population":null,"latitude":"48.0333333","longitude":"19.65"},"almasitanya":{"city":"almasitanya","accentcity":"Almásitanya","region":"20","population":null,"latitude":"47.5333333","longitude":"20.85"},"almaskamaras":{"city":"almaskamaras","accentcity":"Almáskamarás","region":"03","population":null,"latitude":"46.4666667","longitude":"21.1"},"almaskeresztur":{"city":"almaskeresztur","accentcity":"Almáskeresztúr","region":"02","population":null,"latitude":"46.1166667","longitude":"17.9"},"almaskuttanya":{"city":"almaskuttanya","accentcity":"Almáskúttanya","region":"14","population":null,"latitude":"48.0333333","longitude":"19.65"},"almasneszmely":{"city":"almasneszmely","accentcity":"Almásneszmély","region":"12","population":null,"latitude":"47.7333333","longitude":"18.3666667"},"almaspuszta":{"city":"almaspuszta","accentcity":"Almáspuszta","region":"14","population":null,"latitude":"47.9833333","longitude":"19.15"},"almas puszta":{"city":"almas puszta","accentcity":"Almás Puszta","region":"21","population":null,"latitude":"46.3","longitude":"18.6833333"},"almastanya":{"city":"almastanya","accentcity":"Almástanya","region":"18","population":null,"latitude":"47.9666667","longitude":"22.0833333"},"almasvolgytanya":{"city":"almasvolgytanya","accentcity":"Almásvölgytanya","region":"04","population":null,"latitude":"48.45","longitude":"20.45"},"almasytanya":{"city":"almasytanya","accentcity":"Almásytanya","region":"20","population":null,"latitude":"47.5333333","longitude":"20.85"},"almasytelep":{"city":"almasytelep","accentcity":"Almásytelep","region":"20","population":null,"latitude":"47.1833333","longitude":"20.2"},"almavolgypuszta":{"city":"almavolgypuszta","accentcity":"Almavölgypuszta","region":"14","population":null,"latitude":"47.7666667","longitude":"19.4666667"},"almosd":{"city":"almosd","accentcity":"Álmosd","region":"10","population":null,"latitude":"47.4166667","longitude":"21.9833333"},"alomzug":{"city":"alomzug","accentcity":"Álomzug","region":"10","population":null,"latitude":"47.1","longitude":"21.4333333"},"alomzugtanya":{"city":"alomzugtanya","accentcity":"Álomzugtanya","region":"10","population":null,"latitude":"47.1","longitude":"21.4333333"},"alpar":{"city":"alpar","accentcity":"Alpár","region":"01","population":null,"latitude":"46.8166667","longitude":"20.0"},"alpari tanyak":{"city":"alpari tanyak","accentcity":"Alpári Tanyák","region":"01","population":null,"latitude":"46.8166667","longitude":"20.0"},"alsoabrany":{"city":"alsoabrany","accentcity":"Alsóábrány","region":"04","population":null,"latitude":"47.8833333","longitude":"20.6833333"},"alsoadacs":{"city":"alsoadacs","accentcity":"Alsóadacs","region":"01","population":null,"latitude":"46.9333333","longitude":"19.3333333"},"alsoanyas":{"city":"alsoanyas","accentcity":"Alsóányás","region":"06","population":null,"latitude":"46.45","longitude":"20.1333333"},"alsoaranyod":{"city":"alsoaranyod","accentcity":"Alsóaranyod","region":"24","population":null,"latitude":"46.95","longitude":"17.0666667"},"alsoatokhaza":{"city":"alsoatokhaza","accentcity":"Alsóátokháza","region":"06","population":null,"latitude":"46.3166667","longitude":"19.9166667"},"alsoavas":{"city":"alsoavas","accentcity":"Alsóavas","region":"21","population":null,"latitude":"46.7","longitude":"18.1333333"},"alsobabad":{"city":"alsobabad","accentcity":"Alsóbabád","region":"16","population":null,"latitude":"47.2333333","longitude":"19.25"},"alsobadurbokor":{"city":"alsobadurbokor","accentcity":"Alsóbadurbokor","region":"18","population":null,"latitude":"47.95","longitude":"21.7166667"},"alsobanyatelep":{"city":"alsobanyatelep","accentcity":"Alsóbányatelep","region":"12","population":null,"latitude":"47.4833333","longitude":"18.3333333"},"also-barand-major":{"city":"also-barand-major","accentcity":"Alsó-Baránd-major","region":"24","population":null,"latitude":"46.6666667","longitude":"17.1166667"},"alsobaricska":{"city":"alsobaricska","accentcity":"Alsóbaricska","region":"23","population":null,"latitude":"46.9666667","longitude":"17.8666667"},"alsobebespuszta":{"city":"alsobebespuszta","accentcity":"Alsóbebespuszta","region":"24","population":null,"latitude":"46.7166667","longitude":"16.95"},"alsobendek-puszta":{"city":"alsobendek-puszta","accentcity":"Alsóbéndek-puszta","region":"17","population":null,"latitude":"46.65","longitude":"17.7166667"},"also bendek-puszta":{"city":"also bendek-puszta","accentcity":"Alsó Béndek-puszta","region":"17","population":null,"latitude":"46.65","longitude":"17.7166667"},"alsobene":{"city":"alsobene","accentcity":"Alsóbene","region":"01","population":null,"latitude":"47.0333333","longitude":"19.55"},"alsoberecki":{"city":"alsoberecki","accentcity":"Alsóberecki","region":"04","population":null,"latitude":"48.35","longitude":"21.7"},"alsoberecska":{"city":"alsoberecska","accentcity":"Alsóberecska","region":"17","population":null,"latitude":"46.5166667","longitude":"17.7833333"},"alsobesnyo":{"city":"alsobesnyo","accentcity":"Alsobesnyo","region":"16","population":null,"latitude":"47.2","longitude":"19.3"},"alsobikad":{"city":"alsobikad","accentcity":"Alsóbikád","region":"21","population":null,"latitude":"46.6","longitude":"18.5"},"alsobikol":{"city":"alsobikol","accentcity":"Alsóbikol","region":"12","population":null,"latitude":"47.7166667","longitude":"18.45"},"alsobocsar":{"city":"alsobocsar","accentcity":"Alsóbocsár","region":"23","population":null,"latitude":"46.9666667","longitude":"17.8666667"},"alsobogardpuszta":{"city":"alsobogardpuszta","accentcity":"Alsóbogárdpuszta","region":"08","population":null,"latitude":"46.8166667","longitude":"18.4166667"},"alsobogat":{"city":"alsobogat","accentcity":"Alsóbogát","region":"17","population":null,"latitude":"46.5","longitude":"17.75"},"alsobogatpuszta":{"city":"alsobogatpuszta","accentcity":"Alsóbogátpuszta","region":"17","population":null,"latitude":"46.3166667","longitude":"17.4"},"alsoborcshaza":{"city":"alsoborcshaza","accentcity":"Alsóbörcsháza","region":"12","population":null,"latitude":"47.5333333","longitude":"17.95"},"alsoborsod":{"city":"alsoborsod","accentcity":"Alsóborsod","region":"23","population":null,"latitude":"47.15","longitude":"17.5833333"},"alsoborzsony":{"city":"alsoborzsony","accentcity":"Alsóbörzsöny","region":"21","population":null,"latitude":"46.2833333","longitude":"18.5666667"},"alsobucka":{"city":"alsobucka","accentcity":"Alsóbucka","region":"16","population":null,"latitude":"47.3333333","longitude":"19.0333333"},"alsocebe":{"city":"alsocebe","accentcity":"Alsócebe","region":"01","population":null,"latitude":"46.6333333","longitude":"19.3666667"},"alsocece":{"city":"alsocece","accentcity":"Alsócéce","region":"04","population":null,"latitude":"48.35","longitude":"21.2"},"alsocikola":{"city":"alsocikola","accentcity":"Alsócikola","region":"08","population":null,"latitude":"47.0833333","longitude":"18.8333333"},"alsocsala":{"city":"alsocsala","accentcity":"Alsócsala","region":"01","population":null,"latitude":"46.4166667","longitude":"19.1833333"},"alsocsalanos":{"city":"alsocsalanos","accentcity":"Alsócsalános","region":"01","population":null,"latitude":"46.9","longitude":"19.7"},"alsocsampa":{"city":"alsocsampa","accentcity":"Alsócsámpa","region":"21","population":null,"latitude":"46.5666667","longitude":"18.8333333"},"alsocsardadulo":{"city":"alsocsardadulo","accentcity":"Alsocsardadulo","region":"03","population":null,"latitude":"46.65","longitude":"20.85"},"alsocsarda dulo":{"city":"alsocsarda dulo","accentcity":"Alsocsarda Dulo","region":"03","population":null,"latitude":"46.65","longitude":"20.85"},"alsocsatar":{"city":"alsocsatar","accentcity":"Alsócsatár","region":"22","population":null,"latitude":"47.2166667","longitude":"16.4333333"},"alsocserpuszta":{"city":"alsocserpuszta","accentcity":"Alsócserpuszta","region":"24","population":null,"latitude":"46.7","longitude":"16.9833333"},"alsocsesztapuszta":{"city":"alsocsesztapuszta","accentcity":"Alsócsesztapuszta","region":"17","population":null,"latitude":"46.6833333","longitude":"17.85"},"alsocsillag":{"city":"alsocsillag","accentcity":"Alsócsillag","region":"21","population":null,"latitude":"46.6166667","longitude":"18.5666667"},"alsocsinger":{"city":"alsocsinger","accentcity":"Alsócsinger","region":"23","population":null,"latitude":"47.1","longitude":"17.5833333"},"alsocsingervolgy":{"city":"alsocsingervolgy","accentcity":"Alsócsingervölgy","region":"23","population":null,"latitude":"47.1","longitude":"17.5833333"},"alsocsolyos":{"city":"alsocsolyos","accentcity":"Alsócsólyos","region":"01","population":null,"latitude":"46.4166667","longitude":"19.8666667"},"alsocsonget":{"city":"alsocsonget","accentcity":"Alsócsönget","region":"24","population":null,"latitude":"46.9","longitude":"16.95"},"alsocsurgo":{"city":"alsocsurgo","accentcity":"Alsócsurgó","region":"21","population":null,"latitude":"46.45","longitude":"18.4666667"},"alsocun":{"city":"alsocun","accentcity":"Alsócún","region":"02","population":null,"latitude":"45.7833333","longitude":"18.0833333"},"alsodabasi dulo":{"city":"alsodabasi dulo","accentcity":"Alsodabasi Dulo","region":"01","population":null,"latitude":"46.8","longitude":"20.0"},"alsodabasiszollok":{"city":"alsodabasiszollok","accentcity":"Alsodabasiszollok","region":"16","population":null,"latitude":"47.2","longitude":"19.3833333"},"alsodabasi szolok":{"city":"alsodabasi szolok","accentcity":"Alsodabasi Szolok","region":"16","population":null,"latitude":"47.2","longitude":"19.3833333"},"alsodabrony":{"city":"alsodabrony","accentcity":"Alsódabrony","region":"24","population":null,"latitude":"46.9","longitude":"17.0166667"},"alsodanos":{"city":"alsodanos","accentcity":"Alsódános","region":"16","population":null,"latitude":"47.2166667","longitude":"19.55"},"alsodelegyhaza":{"city":"alsodelegyhaza","accentcity":"Alsódélegyháza","region":"16","population":null,"latitude":"47.25","longitude":"19.1"},"alsodobos":{"city":"alsodobos","accentcity":"Alsódobos","region":"08","population":null,"latitude":"47.4166667","longitude":"18.1833333"},"alsodobospuszta":{"city":"alsodobospuszta","accentcity":"Alsódobospuszta","region":"23","population":null,"latitude":"46.9833333","longitude":"17.5666667"},"alsodobrogec":{"city":"alsodobrogec","accentcity":"Alsódöbrögec","region":"01","population":null,"latitude":"46.6666667","longitude":"19.25"},"alsodobsza":{"city":"alsodobsza","accentcity":"Alsódobsza","region":"04","population":null,"latitude":"48.1833333","longitude":"21.0"},"alsodolina":{"city":"alsodolina","accentcity":"Alsódolina","region":"21","population":null,"latitude":"46.1833333","longitude":"18.7333333"},"alsodorgicse":{"city":"alsodorgicse","accentcity":"Alsódörgicse","region":"23","population":null,"latitude":"46.9166667","longitude":"17.7166667"},"alsodulo":{"city":"alsodulo","accentcity":"Alsodulo","region":"12","population":null,"latitude":"47.7","longitude":"18.0166667"},"alsoegreskata":{"city":"alsoegreskata","accentcity":"Alsóegreskáta","region":"16","population":null,"latitude":"47.45","longitude":"19.7833333"},"alsoegrespuszta":{"city":"alsoegrespuszta","accentcity":"Alsóegrespuszta","region":"14","population":null,"latitude":"47.85","longitude":"19.5166667"},"alsoerdo":{"city":"alsoerdo","accentcity":"Alsoerdo","region":"24","population":null,"latitude":"46.45","longitude":"16.9833333"},"alsoerdopuszta":{"city":"alsoerdopuszta","accentcity":"Alsoerdopuszta","region":"23","population":null,"latitude":"47.0833333","longitude":"17.7666667"},"alsoerek":{"city":"alsoerek","accentcity":"Alsóerek","region":"01","population":null,"latitude":"46.5833333","longitude":"19.0833333"},"alsoerzsebetpuszta":{"city":"alsoerzsebetpuszta","accentcity":"Alsóerzsébetpuszta","region":"02","population":null,"latitude":"45.8166667","longitude":"17.8666667"},"alsoerzsebet-tanya":{"city":"alsoerzsebet-tanya","accentcity":"Alsóerzsébet-tanya","region":"02","population":null,"latitude":"45.8166667","longitude":"17.8666667"},"also essoi-major":{"city":"also essoi-major","accentcity":"Also Essoi-major","region":"16","population":null,"latitude":"47.1","longitude":"19.3666667"},"alsoessopuszta":{"city":"alsoessopuszta","accentcity":"Alsoessopuszta","region":"16","population":null,"latitude":"47.1","longitude":"19.3666667"},"alsofakos":{"city":"alsofakos","accentcity":"Alsófakos","region":"24","population":null,"latitude":"46.6666667","longitude":"16.9166667"},"alsofarkasd":{"city":"alsofarkasd","accentcity":"Alsófarkasd","region":"21","population":null,"latitude":"46.1833333","longitude":"18.7333333"},"alsofarkasdmajor":{"city":"alsofarkasdmajor","accentcity":"Alsófarkasdmajor","region":"16","population":null,"latitude":"47.3833333","longitude":"19.5166667"},"alsofeketeerdo":{"city":"alsofeketeerdo","accentcity":"Alsofeketeerdo","region":"16","population":null,"latitude":"47.3833333","longitude":"19.75"},"alsofeketefoldek":{"city":"alsofeketefoldek","accentcity":"Alsófeketeföldek","region":"01","population":null,"latitude":"46.4333333","longitude":"19.4833333"},"alsofutak":{"city":"alsofutak","accentcity":"Alsófutak","region":"10","population":null,"latitude":"47.3166667","longitude":"21.1166667"},"alsofutyemajor":{"city":"alsofutyemajor","accentcity":"Alsófütyemajor","region":"17","population":null,"latitude":"46.7833333","longitude":"17.9333333"},"alsofuzes":{"city":"alsofuzes","accentcity":"Alsófüzes","region":"16","population":null,"latitude":"47.05","longitude":"19.8166667"},"alsogagy":{"city":"alsogagy","accentcity":"Alsógagy","region":"04","population":null,"latitude":"48.4","longitude":"21.0333333"},"alsogaicspuszta":{"city":"alsogaicspuszta","accentcity":"Alsógaicspuszta","region":"17","population":null,"latitude":"46.6166667","longitude":"17.45"},"alsogajdimalom":{"city":"alsogajdimalom","accentcity":"Alsógajdimalom","region":"08","population":null,"latitude":"47.2833333","longitude":"18.2666667"},"alsogalambos":{"city":"alsogalambos","accentcity":"Alsógalambos","region":"01","population":null,"latitude":"46.6833333","longitude":"19.8"},"alsogalla":{"city":"alsogalla","accentcity":"Alsógalla","region":"12","population":null,"latitude":"47.5666667","longitude":"18.4"},"alsogasparsor":{"city":"alsogasparsor","accentcity":"Alsógáspársor","region":"01","population":null,"latitude":"46.6","longitude":"19.4833333"},"alsogazdagdulo":{"city":"alsogazdagdulo","accentcity":"Alsogazdagdulo","region":"16","population":null,"latitude":"47.4166667","longitude":"18.95"},"alsogod":{"city":"alsogod","accentcity":"Alsógöd","region":"16","population":null,"latitude":"47.7","longitude":"19.1333333"},"alsogola":{"city":"alsogola","accentcity":"Alsógóla","region":"17","population":null,"latitude":"46.1666667","longitude":"17.3"},"alsogolapuszta":{"city":"alsogolapuszta","accentcity":"Alsógólapuszta","region":"17","population":null,"latitude":"46.1666667","longitude":"17.3"},"alsogorzsony":{"city":"alsogorzsony","accentcity":"Alsógörzsöny","region":"23","population":null,"latitude":"47.4","longitude":"17.3666667"},"alsogyocs":{"city":"alsogyocs","accentcity":"Alsógyócs","region":"17","population":null,"latitude":"46.2","longitude":"17.5666667"},"alsogyorgyos":{"city":"alsogyorgyos","accentcity":"Alsógyörgyös","region":"17","population":null,"latitude":"46.0166667","longitude":"17.45"},"alsogyotapuszta":{"city":"alsogyotapuszta","accentcity":"Alsógyótapuszta","region":"17","population":null,"latitude":"46.3333333","longitude":"17.5"},"alsogyukes":{"city":"alsogyukes","accentcity":"Alsógyükés","region":"15","population":null,"latitude":"46.1166667","longitude":"18.2833333"},"alsohalom":{"city":"alsohalom","accentcity":"Alsóhalom","region":"16","population":null,"latitude":"47.3666667","longitude":"19.2833333"},"alsohangos":{"city":"alsohangos","accentcity":"Alsóhangos","region":"08","population":null,"latitude":"46.7833333","longitude":"18.7333333"},"alsohard":{"city":"alsohard","accentcity":"Alsóhard","region":"21","population":null,"latitude":"46.7333333","longitude":"18.75"},"alsohatartanyak":{"city":"alsohatartanyak","accentcity":"Alsóhatártanyák","region":"08","population":null,"latitude":"47.05","longitude":"18.3"},"alsohegy":{"city":"alsohegy","accentcity":"Alsóhegy","region":"24","population":null,"latitude":"46.6666667","longitude":"16.6833333"},"alsohek":{"city":"alsohek","accentcity":"Alsóhék","region":"20","population":null,"latitude":"47.0","longitude":"20.4"},"alsohernad":{"city":"alsohernad","accentcity":"Alsóhernád","region":"16","population":null,"latitude":"47.1666667","longitude":"19.4333333"},"alsohesteny":{"city":"alsohesteny","accentcity":"Alsóhestény","region":"17","population":null,"latitude":"46.4333333","longitude":"18.0166667"},"alsoheteny":{"city":"alsoheteny","accentcity":"Alsóhetény","region":"17","population":null,"latitude":"46.4333333","longitude":"18.0166667"},"alsohidveg":{"city":"alsohidveg","accentcity":"Alsóhídvég","region":"21","population":null,"latitude":"46.5166667","longitude":"18.6666667"},"alsohomokerdo":{"city":"alsohomokerdo","accentcity":"Alsohomokerdo","region":"21","population":null,"latitude":"46.8","longitude":"18.9166667"},"also horvathmalom":{"city":"also horvathmalom","accentcity":"Alsó Horváthmalom","region":"02","population":null,"latitude":"45.9833333","longitude":"18.35"},"alsohuta":{"city":"alsohuta","accentcity":"Alsóhuta","region":"14","population":null,"latitude":"47.9","longitude":"19.8166667"},"also inoka-malom":{"city":"also inoka-malom","accentcity":"Alsó Inoka-malom","region":"21","population":null,"latitude":"46.5666667","longitude":"18.2166667"},"alsoistvand":{"city":"alsoistvand","accentcity":"Alsóistvánd","region":"24","population":null,"latitude":"46.6","longitude":"16.85"},"alsoistvand-puszta":{"city":"alsoistvand-puszta","accentcity":"Alsóistvánd-puszta","region":"24","population":null,"latitude":"46.6","longitude":"16.85"},"alsoiszkaz":{"city":"alsoiszkaz","accentcity":"Alsóiszkáz","region":"23","population":null,"latitude":"47.1666667","longitude":"17.3"},"alsoivanpuszta":{"city":"alsoivanpuszta","accentcity":"Alsóivánpuszta","region":"14","population":null,"latitude":"47.9833333","longitude":"19.9666667"},"also-ivany-puszta":{"city":"also-ivany-puszta","accentcity":"Alsó-Ivány-puszta","region":"14","population":null,"latitude":"47.9833333","longitude":"19.9666667"},"alsojaras":{"city":"alsojaras","accentcity":"Alsójárás","region":"16","population":null,"latitude":"47.05","longitude":"19.8666667"},"alsokalkaturalis":{"city":"alsokalkaturalis","accentcity":"Alsókalkaturális","region":"01","population":null,"latitude":"46.1833333","longitude":"18.9666667"},"alsok":{"city":"alsok","accentcity":"Alsok","region":"17","population":null,"latitude":"46.2333333","longitude":"17.1166667"},"alsokanda":{"city":"alsokanda","accentcity":"Alsókanda","region":"02","population":null,"latitude":"45.9833333","longitude":"18.6833333"},"alsokara":{"city":"alsokara","accentcity":"Alsókara","region":"16","population":null,"latitude":"47.0333333","longitude":"20.0166667"},"alsokatalin-banyatelep":{"city":"alsokatalin-banyatelep","accentcity":"Alsókatalin-bányatelep","region":"14","population":null,"latitude":"47.95","longitude":"19.8166667"},"alsokispuszta":{"city":"alsokispuszta","accentcity":"Alsókispuszta","region":"08","population":null,"latitude":"47.25","longitude":"18.9166667"},"alsokolked":{"city":"alsokolked","accentcity":"Alsókölked","region":"17","population":null,"latitude":"46.5833333","longitude":"17.5833333"},"alsokommasszacio":{"city":"alsokommasszacio","accentcity":"Alsókommasszáció","region":"01","population":null,"latitude":"46.6166667","longitude":"19.2833333"},"alsokortvelyes":{"city":"alsokortvelyes","accentcity":"Alsókörtvélyes","region":"08","population":null,"latitude":"46.8833333","longitude":"18.6333333"},"alsokovacsgyop":{"city":"alsokovacsgyop","accentcity":"Alsókovácsgyöp","region":"01","population":null,"latitude":"46.25","longitude":"19.4833333"},"alsokovacsmajor":{"city":"alsokovacsmajor","accentcity":"Alsókovácsmajor","region":"21","population":null,"latitude":"46.45","longitude":"18.9"},"alsokovesd":{"city":"alsokovesd","accentcity":"Alsókövesd","region":"02","population":null,"latitude":"46.2","longitude":"17.9666667"},"alsokozpont":{"city":"alsokozpont","accentcity":"Alsóközpont","region":"06","population":null,"latitude":"46.2194444","longitude":"19.8911111"},"alsokustany":{"city":"alsokustany","accentcity":"Alsókustány","region":"24","population":null,"latitude":"46.8166667","longitude":"17.1166667"},"alsolajospuszta":{"city":"alsolajospuszta","accentcity":"Alsólajospuszta","region":"01","population":null,"latitude":"47.0166667","longitude":"19.5333333"},"alsolegencse":{"city":"alsolegencse","accentcity":"Alsólegencse","region":"02","population":null,"latitude":"45.9166667","longitude":"17.8666667"},"alsolengyend":{"city":"alsolengyend","accentcity":"Alsólengyend","region":"14","population":null,"latitude":"47.9833333","longitude":"19.8666667"},"alsoleperd":{"city":"alsoleperd","accentcity":"Alsóleperd","region":"21","population":null,"latitude":"46.4666667","longitude":"18.1666667"},"alsolog":{"city":"alsolog","accentcity":"Alsólög","region":"02","population":null,"latitude":"45.9833333","longitude":"18.6833333"},"alsomagyalos":{"city":"alsomagyalos","accentcity":"Alsómagyalos","region":"11","population":null,"latitude":"47.8666667","longitude":"20.25"},"alsomajor":{"city":"alsomajor","accentcity":"Alsómajor","region":"24","population":null,"latitude":"46.8","longitude":"17.1166667"},"also-major":{"city":"also-major","accentcity":"Alsó-major","region":"08","population":null,"latitude":"46.7666667","longitude":"18.6166667"},"alsomajsa":{"city":"alsomajsa","accentcity":"Alsómajsa","region":"21","population":null,"latitude":"46.6","longitude":"18.4166667"},"also mako-puszta":{"city":"also mako-puszta","accentcity":"Alsó Makó-puszta","region":"14","population":null,"latitude":"47.8","longitude":"19.4833333"},"also-malom":{"city":"also-malom","accentcity":"Alsó-malom","region":"02","population":null,"latitude":"45.9833333","longitude":"18.35"},"alsomalom":{"city":"alsomalom","accentcity":"Alsómalom","region":"24","population":null,"latitude":"46.7333333","longitude":"17.2333333"},"alsomalomtelep":{"city":"alsomalomtelep","accentcity":"Alsómalomtelep","region":"14","population":null,"latitude":"47.9","longitude":"19.6166667"},"alsomama":{"city":"alsomama","accentcity":"Alsómáma","region":"23","population":null,"latitude":"47.0833333","longitude":"18.0833333"},"alsomandpuszta":{"city":"alsomandpuszta","accentcity":"Alsómándpuszta","region":"23","population":null,"latitude":"46.7833333","longitude":"17.1333333"},"alsomarosd":{"city":"alsomarosd","accentcity":"Alsómarosd","region":"17","population":null,"latitude":"46.5166667","longitude":"18.0"},"alsomegy":{"city":"alsomegy","accentcity":"Alsómégy","region":"01","population":null,"latitude":"46.5","longitude":"19.1333333"},"alsomegyes":{"city":"alsomegyes","accentcity":"Alsómegyes","region":"21","population":null,"latitude":"46.6333333","longitude":"18.2166667"},"alsomenyod":{"city":"alsomenyod","accentcity":"Alsomenyod","region":"08","population":null,"latitude":"46.7333333","longitude":"18.7"},"alsomenyodpuszta":{"city":"alsomenyodpuszta","accentcity":"Alsomenyodpuszta","region":"08","population":null,"latitude":"46.7333333","longitude":"18.7"},"alsomera":{"city":"alsomera","accentcity":"Alsóméra","region":"04","population":null,"latitude":"48.35","longitude":"21.15"},"alsomezo":{"city":"alsomezo","accentcity":"Alsomezo","region":"23","population":null,"latitude":"47.3","longitude":"17.6"},"alsomezotanya":{"city":"alsomezotanya","accentcity":"Alsomezotanya","region":"02","population":null,"latitude":"45.9666667","longitude":"18.6666667"},"alsomikebuda":{"city":"alsomikebuda","accentcity":"Alsómikebuda","region":"16","population":null,"latitude":"47.1666667","longitude":"19.65"},"alsomocsar":{"city":"alsomocsar","accentcity":"Alsómocsár","region":"04","population":null,"latitude":"48.4","longitude":"21.6666667"},"alsomocsarasdulo":{"city":"alsomocsarasdulo","accentcity":"Alsomocsarasdulo","region":"21","population":null,"latitude":"46.4166667","longitude":"18.45"},"alsomocsolad":{"city":"alsomocsolad","accentcity":"Alsómocsolád","region":"02","population":null,"latitude":"46.3166667","longitude":"18.25"},"alsomonostor":{"city":"alsomonostor","accentcity":"Alsómonostor","region":"01","population":null,"latitude":"46.65","longitude":"19.75"},"alsomoricgat":{"city":"alsomoricgat","accentcity":"Alsómóricgát","region":"01","population":null,"latitude":"46.6166667","longitude":"19.6833333"},"alsomozsar":{"city":"alsomozsar","accentcity":"Alsómozsár","region":"23","population":null,"latitude":"46.9333333","longitude":"17.8333333"},"alsomuszaj":{"city":"alsomuszaj","accentcity":"Alsómuszáj","region":"20","population":null,"latitude":"47.4666667","longitude":"19.8833333"},"alsomuzsai tanyak":{"city":"alsomuzsai tanyak","accentcity":"Alsómuzsai Tanyák","region":"20","population":null,"latitude":"47.4666667","longitude":"19.8833333"},"alsonadasd":{"city":"alsonadasd","accentcity":"Alsónádasd","region":"14","population":null,"latitude":"47.9333333","longitude":"19.65"},"also nadasd-puszta":{"city":"also nadasd-puszta","accentcity":"Alsó Nádasd-puszta","region":"14","population":null,"latitude":"47.9333333","longitude":"19.65"},"alsonana":{"city":"alsonana","accentcity":"Alsónána","region":"21","population":null,"latitude":"46.25","longitude":"18.6666667"},"alsonanai laiver":{"city":"alsonanai laiver","accentcity":"Alsónánai Laivér","region":"21","population":null,"latitude":"46.25","longitude":"18.6666667"},"alsonanai mauszcsarda":{"city":"alsonanai mauszcsarda","accentcity":"Alsónánai Mauszcsárda","region":"21","population":null,"latitude":"46.25","longitude":"18.6666667"},"alsonemedi":{"city":"alsonemedi","accentcity":"Alsónémedi","region":"16","population":"4974","latitude":"47.3166667","longitude":"19.1666667"},"alsonemedi szollok":{"city":"alsonemedi szollok","accentcity":"Alsonemedi Szollok","region":"16","population":null,"latitude":"47.3833333","longitude":"19.2333333"},"alsonemesapati":{"city":"alsonemesapati","accentcity":"Alsónemesapáti","region":"24","population":null,"latitude":"46.8480556","longitude":"16.935"},"alsonovaj":{"city":"alsonovaj","accentcity":"Alsonóvaj","region":"04","population":null,"latitude":"48.4","longitude":"21.1833333"},"alsonyarsapat":{"city":"alsonyarsapat","accentcity":"Alsónyársapát","region":"16","population":null,"latitude":"47.1","longitude":"19.8166667"},"alsonyek":{"city":"alsonyek","accentcity":"Alsónyék","region":"21","population":null,"latitude":"46.2","longitude":"18.7333333"},"alsonyeki tanyak":{"city":"alsonyeki tanyak","accentcity":"Alsónyéki Tanyák","region":"04","population":null,"latitude":"47.9666667","longitude":"20.8333333"},"also nyerges-puszta":{"city":"also nyerges-puszta","accentcity":"Alsó Nyerges-puszta","region":"14","population":null,"latitude":"48.1666667","longitude":"19.5666667"},"alsonyiget":{"city":"alsonyiget","accentcity":"Alsónyiget","region":"11","population":null,"latitude":"47.7833333","longitude":"20.1166667"},"alsonyires":{"city":"alsonyires","accentcity":"Alsónyires","region":"17","population":null,"latitude":"46.4","longitude":"17.65"},"alsonyirvarimajor":{"city":"alsonyirvarimajor","accentcity":"Alsónyírvárimajor","region":"22","population":null,"latitude":"47.1","longitude":"16.5666667"},"alsonyirvarmajor":{"city":"alsonyirvarmajor","accentcity":"Alsónyirvármajor","region":"22","population":null,"latitude":"47.1","longitude":"16.5666667"},"alsonyomas":{"city":"alsonyomas","accentcity":"Alsónyomás","region":"20","population":null,"latitude":"47.4833333","longitude":"20.1166667"},"alsooreghegy":{"city":"alsooreghegy","accentcity":"Alsóöreghegy","region":"21","population":null,"latitude":"46.7833333","longitude":"18.95"},"alsooregszollok":{"city":"alsooregszollok","accentcity":"Alsooregszollok","region":"01","population":null,"latitude":"46.4333333","longitude":"19.4833333"},"alsooregszolok":{"city":"alsooregszolok","accentcity":"Alsooregszolok","region":"01","population":null,"latitude":"46.4333333","longitude":"19.4833333"},"alsoors":{"city":"alsoors","accentcity":"Alsóörs","region":"23","population":null,"latitude":"46.9833333","longitude":"17.9833333"},"alsoorspuszta":{"city":"alsoorspuszta","accentcity":"Alsóörspuszta","region":"08","population":null,"latitude":"47.55","longitude":"18.6833333"},"alsoors-villatelep":{"city":"alsoors-villatelep","accentcity":"Alsoors-villatelep","region":"23","population":null,"latitude":"46.9833333","longitude":"17.9833333"},"alsopahok":{"city":"alsopahok","accentcity":"Alsópáhok","region":"24","population":null,"latitude":"46.7666667","longitude":"17.1833333"},"alsopakony":{"city":"alsopakony","accentcity":"Alsópakony","region":"16","population":null,"latitude":"47.3166667","longitude":"19.3"},"alsopalajpuszta":{"city":"alsopalajpuszta","accentcity":"Alsópalajpuszta","region":"02","population":null,"latitude":"45.8833333","longitude":"18.0833333"},"alsopalos":{"city":"alsopalos","accentcity":"Alsópálos","region":"01","population":null,"latitude":"46.3833333","longitude":"19.8666667"},"alsopandur":{"city":"alsopandur","accentcity":"Alsópandur","region":"01","population":null,"latitude":"46.15","longitude":"18.8833333"},"alsopaskum":{"city":"alsopaskum","accentcity":"Alsópáskum","region":"17","population":null,"latitude":"46.9","longitude":"18.1333333"},"alsopatlan":{"city":"alsopatlan","accentcity":"Alsópatlan","region":"21","population":null,"latitude":"46.4166667","longitude":"18.6"},"also-patlan-puszta":{"city":"also-patlan-puszta","accentcity":"Alsó-patlan-puszta","region":"21","population":null,"latitude":"46.4166667","longitude":"18.6"},"alsopaty":{"city":"alsopaty","accentcity":"Alsópaty","region":"22","population":null,"latitude":"47.3","longitude":"16.9333333"},"alsopazsit":{"city":"alsopazsit","accentcity":"Alsópázsit","region":"18","population":null,"latitude":"47.9333333","longitude":"21.7166667"},"alsopel":{"city":"alsopel","accentcity":"Alsópél","region":"21","population":null,"latitude":"46.5666667","longitude":"18.5666667"},"alsopere":{"city":"alsopere","accentcity":"Alsópere","region":"23","population":null,"latitude":"47.2166667","longitude":"17.9833333"},"alsopeszer":{"city":"alsopeszer","accentcity":"Alsópeszér","region":"01","population":null,"latitude":"47.0666667","longitude":"19.2833333"},"alsopeteny":{"city":"alsopeteny","accentcity":"Alsópetény","region":"14","population":null,"latitude":"47.8833333","longitude":"19.25"},"alsoporboly":{"city":"alsoporboly","accentcity":"Alsópörböly","region":"01","population":null,"latitude":"46.1833333","longitude":"18.8833333"},"alsopuszta":{"city":"alsopuszta","accentcity":"Alsópuszta","region":"21","population":null,"latitude":"46.4666667","longitude":"18.6833333"},"alsoracegres":{"city":"alsoracegres","accentcity":"Alsórácegres","region":"21","population":null,"latitude":"46.6166667","longitude":"18.6166667"},"alsorajk":{"city":"alsorajk","accentcity":"Alsórajk","region":"24","population":null,"latitude":"46.65","longitude":"17.0"},"alsore":{"city":"alsore","accentcity":"Alsóré","region":"06","population":null,"latitude":"46.6666667","longitude":"20.25"},"alsoregmec":{"city":"alsoregmec","accentcity":"Alsóregmec","region":"04","population":null,"latitude":"48.4666667","longitude":"21.6166667"},"alsoregmeci tanyak":{"city":"alsoregmeci tanyak","accentcity":"Alsóregmeci Tanyák","region":"04","population":null,"latitude":"48.4666667","longitude":"21.6166667"},"alsoret":{"city":"alsoret","accentcity":"Alsórét","region":"23","population":null,"latitude":"47.0333333","longitude":"18.1166667"},"alsoretdulo":{"city":"alsoretdulo","accentcity":"Alsoretdulo","region":"16","population":null,"latitude":"47.55","longitude":"19.2666667"},"alsoreti dulo":{"city":"alsoreti dulo","accentcity":"Alsoreti Dulo","region":"10","population":null,"latitude":"47.0166667","longitude":"21.5"},"alsoreti tanya":{"city":"alsoreti tanya","accentcity":"Alsóréti Tanya","region":"20","population":null,"latitude":"47.5666667","longitude":"20.7333333"},"alsoreti tanyak":{"city":"alsoreti tanyak","accentcity":"Alsóréti Tanyák","region":"10","population":null,"latitude":"47.6666667","longitude":"20.95"},"alsorev":{"city":"alsorev","accentcity":"Alsórév","region":"21","population":null,"latitude":"46.8","longitude":"18.95"},"alsoronok":{"city":"alsoronok","accentcity":"Alsórönök","region":"22","population":null,"latitude":"46.9833333","longitude":"16.3666667"},"also-rozsnaki-tanya":{"city":"also-rozsnaki-tanya","accentcity":"Alsó-rozsnaki-tanya","region":"11","population":null,"latitude":"47.9666667","longitude":"20.25"},"alsorozsnakpuszta":{"city":"alsorozsnakpuszta","accentcity":"Alsórozsnakpuszta","region":"11","population":null,"latitude":"47.9666667","longitude":"20.25"},"alsosag":{"city":"alsosag","accentcity":"Alsóság","region":"22","population":null,"latitude":"47.2333333","longitude":"17.15"},"alsosanc":{"city":"alsosanc","accentcity":"Alsósánc","region":"24","population":null,"latitude":"46.45","longitude":"16.9833333"},"alsosarlospuszta":{"city":"alsosarlospuszta","accentcity":"Alsósarlóspuszta","region":"14","population":null,"latitude":"47.8166667","longitude":"19.5"},"alsosashalomdulo":{"city":"alsosashalomdulo","accentcity":"Alsosashalomdulo","region":"03","population":null,"latitude":"46.6333333","longitude":"20.8333333"},"alsosaskalapos":{"city":"alsosaskalapos","accentcity":"Alsósáskalapos","region":"01","population":null,"latitude":"46.1833333","longitude":"19.5666667"},"alsosegesd":{"city":"alsosegesd","accentcity":"Alsósegesd","region":"17","population":null,"latitude":"46.35","longitude":"17.35"},"alsosima":{"city":"alsosima","accentcity":"Alsósima","region":"18","population":null,"latitude":"47.8833333","longitude":"21.6166667"},"alsosomlyo":{"city":"alsosomlyo","accentcity":"Alsósomlyó","region":"08","population":null,"latitude":"47.0666667","longitude":"18.3333333"},"alsososkutbokor":{"city":"alsososkutbokor","accentcity":"Alsósóskútbokor","region":"18","population":null,"latitude":"48.0166667","longitude":"21.6166667"},"alsosotetmajor":{"city":"alsosotetmajor","accentcity":"Alsósötétmajor","region":"24","population":null,"latitude":"46.85","longitude":"16.5833333"},"alsostrazsa":{"city":"alsostrazsa","accentcity":"Alsóstrázsa","region":"16","population":null,"latitude":"47.35","longitude":"19.45"},"alsoszallas":{"city":"alsoszallas","accentcity":"Alsószállás","region":"10","population":null,"latitude":"47.6","longitude":"21.7666667"},"also szallas":{"city":"also szallas","accentcity":"Alsó szállás","region":"01","population":null,"latitude":"46.4666667","longitude":"18.95"},"alsoszallasok":{"city":"alsoszallasok","accentcity":"Alsószállások","region":"01","population":null,"latitude":"46.4666667","longitude":"18.95"},"alsoszalmavar":{"city":"alsoszalmavar","accentcity":"Alsószalmavár","region":"23","population":null,"latitude":"47.4","longitude":"17.6"},"alsoszalmavar-major":{"city":"alsoszalmavar-major","accentcity":"Alsószalmavár-major","region":"23","population":null,"latitude":"47.4","longitude":"17.6"},"alsoszanaspuszta":{"city":"alsoszanaspuszta","accentcity":"Alsószánaspuszta","region":"14","population":null,"latitude":"48.0833333","longitude":"19.7666667"},"also szanas-puszta":{"city":"also szanas-puszta","accentcity":"Alsó Szánas-puszta","region":"14","population":null,"latitude":"48.1","longitude":"19.7666667"},"alsoszapudpuszta":{"city":"alsoszapudpuszta","accentcity":"Alsószapudpuszta","region":"09","population":null,"latitude":"47.6666667","longitude":"17.3833333"},"alsoszaszberek":{"city":"alsoszaszberek","accentcity":"Alsószászberek","region":"20","population":null,"latitude":"47.3166667","longitude":"20.1"},"alsoszekto":{"city":"alsoszekto","accentcity":"Alsószéktó","region":"01","population":null,"latitude":"46.9","longitude":"19.7"},"alsoszeleste":{"city":"alsoszeleste","accentcity":"Alsószeleste","region":"22","population":null,"latitude":"47.3","longitude":"16.8333333"},"also szenasvolgy":{"city":"also szenasvolgy","accentcity":"Alsó Szénásvölgy","region":"24","population":null,"latitude":"46.7166667","longitude":"16.8666667"},"alsoszenterzsebet":{"city":"alsoszenterzsebet","accentcity":"Alsószenterzsébet","region":"24","population":null,"latitude":"46.75","longitude":"16.4833333"},"alsoszentivan":{"city":"alsoszentivan","accentcity":"Alsószentiván","region":"16","population":null,"latitude":"47.15","longitude":"19.0666667"},"alsoszentkata":{"city":"alsoszentkata","accentcity":"Alsószentkata","region":"01","population":null,"latitude":"46.2666667","longitude":"19.2333333"},"alsoszentmarton":{"city":"alsoszentmarton","accentcity":"Alsószentmárton","region":"02","population":null,"latitude":"45.7891667","longitude":"18.3055556"},"alsoszenttamas":{"city":"alsoszenttamas","accentcity":"Alsószenttamás","region":"01","population":null,"latitude":"46.9666667","longitude":"19.1333333"},"alsosziget":{"city":"alsosziget","accentcity":"Alsósziget","region":"16","population":null,"latitude":"47.1","longitude":"19.0166667"},"alsoszigeti major":{"city":"alsoszigeti major","accentcity":"Alsószigeti Major","region":"21","population":null,"latitude":"46.6166667","longitude":"18.6666667"},"alsoszollo":{"city":"alsoszollo","accentcity":"Alsoszollo","region":"17","population":null,"latitude":"46.2833333","longitude":"17.3666667"},"alsoszolnok":{"city":"alsoszolnok","accentcity":"Alsószölnök","region":"22","population":null,"latitude":"46.9277778","longitude":"16.2086111"},"alsoszolnoki tanyak":{"city":"alsoszolnoki tanyak","accentcity":"Alsószölnöki Tanyák","region":"22","population":null,"latitude":"46.9333333","longitude":"16.2"},"alsoszuha":{"city":"alsoszuha","accentcity":"Alsószuha","region":"04","population":null,"latitude":"48.3666667","longitude":"20.5166667"},"alsotabdi":{"city":"alsotabdi","accentcity":"Alsótabdi","region":"01","population":null,"latitude":"46.6666667","longitude":"19.2833333"},"alsotabpuszta":{"city":"alsotabpuszta","accentcity":"Alsótábpuszta","region":"14","population":null,"latitude":"48.0333333","longitude":"19.4833333"},"alsotanya":{"city":"alsotanya","accentcity":"Alsótanya","region":"16","population":null,"latitude":"47.3","longitude":"19.5"},"alsotanyak":{"city":"alsotanyak","accentcity":"Alsótanyák","region":"20","population":null,"latitude":"47.4833333","longitude":"20.0"},"alsotapazd":{"city":"alsotapazd","accentcity":"Alsótapazd","region":"17","population":null,"latitude":"46.1666667","longitude":"17.6"},"alsotapioi tanya":{"city":"alsotapioi tanya","accentcity":"Alsótápiói Tanya","region":"16","population":null,"latitude":"47.3666667","longitude":"19.7"},"alsoteglahaz":{"city":"alsoteglahaz","accentcity":"Alsótéglaház","region":"08","population":null,"latitude":"47.0166667","longitude":"18.45"},"alsotekeres":{"city":"alsotekeres","accentcity":"Alsótekeres","region":"08","population":null,"latitude":"46.95","longitude":"18.2"},"alsotelekes":{"city":"alsotelekes","accentcity":"Alsótelekes","region":"04","population":null,"latitude":"48.4166667","longitude":"20.6666667"},"alsotengelic":{"city":"alsotengelic","accentcity":"Alsótengelic","region":"21","population":null,"latitude":"46.55","longitude":"18.6833333"},"alsotetelalja":{"city":"alsotetelalja","accentcity":"Alsótételalja","region":"01","population":null,"latitude":"46.8","longitude":"19.0"},"alsoto":{"city":"alsoto","accentcity":"Alsótó","region":"21","population":null,"latitude":"46.8","longitude":"18.9166667"},"alsotoborzsok":{"city":"alsotoborzsok","accentcity":"Alsótöbörzsök","region":"08","population":null,"latitude":"46.9","longitude":"18.6"},"alsotold":{"city":"alsotold","accentcity":"Alsótold","region":"14","population":null,"latitude":"47.95","longitude":"19.6"},"alsotollosmajor":{"city":"alsotollosmajor","accentcity":"Alsótöllösmajor","region":"24","population":null,"latitude":"46.6333333","longitude":"16.9666667"},"alsotollospuszta":{"city":"alsotollospuszta","accentcity":"Alsótöllöspuszta","region":"24","population":null,"latitude":"46.6833333","longitude":"17.0"},"alsotovistetotanya":{"city":"alsotovistetotanya","accentcity":"Alsotovistetotanya","region":"04","population":null,"latitude":"48.2166667","longitude":"21.0333333"},"alsotundermajor":{"city":"alsotundermajor","accentcity":"Alsótündérmajor","region":"23","population":null,"latitude":"47.3","longitude":"17.8333333"},"alsoujhegy":{"city":"alsoujhegy","accentcity":"Alsóújhegy","region":"17","population":null,"latitude":"46.5666667","longitude":"17.6833333"},"alsoujlak":{"city":"alsoujlak","accentcity":"Alsóújlak","region":"22","population":null,"latitude":"47.05","longitude":"16.8"},"alsoujtagmajor":{"city":"alsoujtagmajor","accentcity":"Alsóújtagmajor","region":"09","population":null,"latitude":"47.9166667","longitude":"17.1666667"},"alsoutaspuszta":{"city":"alsoutaspuszta","accentcity":"Alsóutaspuszta","region":"14","population":null,"latitude":"48.15","longitude":"20.0333333"},"alsovadacs":{"city":"alsovadacs","accentcity":"Alsóvadács","region":"12","population":null,"latitude":"47.7","longitude":"18.45"},"alsovadasz":{"city":"alsovadasz","accentcity":"Alsóvadász","region":"04","population":null,"latitude":"48.25","longitude":"20.9166667"},"alsovany":{"city":"alsovany","accentcity":"Alsóvány","region":"16","population":null,"latitude":"47.2666667","longitude":"19.15"},"alsovaros":{"city":"alsovaros","accentcity":"Alsóváros","region":"19","population":null,"latitude":"46.2333333","longitude":"20.1333333"},"alsovarosi feketefoldek":{"city":"alsovarosi feketefoldek","accentcity":"Alsóvárosi Feketeföldek","region":"19","population":null,"latitude":"46.2333333","longitude":"20.1333333"},"alsovarosi godrok":{"city":"alsovarosi godrok","accentcity":"Alsóvárosi Gödrök","region":"19","population":null,"latitude":"46.2333333","longitude":"20.1333333"},"alsovarsany":{"city":"alsovarsany","accentcity":"Alsóvarsány","region":"20","population":null,"latitude":"47.05","longitude":"20.2666667"},"alsovasarter":{"city":"alsovasarter","accentcity":"Alsóvásártér","region":"02","population":null,"latitude":"45.9666667","longitude":"18.5166667"},"alsovasdinnyepuszta":{"city":"alsovasdinnyepuszta","accentcity":"Alsóvasdinnyepuszta","region":"12","population":null,"latitude":"47.55","longitude":"18.0333333"},"also-venkert":{"city":"also-venkert","accentcity":"Alsó-Vénkert","region":"10","population":null,"latitude":"47.7","longitude":"21.7"},"alsovonyarc":{"city":"alsovonyarc","accentcity":"Alsóvonyarc","region":"23","population":null,"latitude":"46.7666667","longitude":"17.3166667"},"alsovranyos":{"city":"alsovranyos","accentcity":"Alsóvrányos","region":"01","population":null,"latitude":"46.1833333","longitude":"18.9666667"},"alsozatony":{"city":"alsozatony","accentcity":"Alsózátony","region":"01","population":null,"latitude":"46.6333333","longitude":"19.0"},"alsozsolca":{"city":"alsozsolca","accentcity":"Alsózsolca","region":"04","population":"6107","latitude":"48.0666667","longitude":"20.8833333"},"alsozsukma":{"city":"alsozsukma","accentcity":"Alsózsukma","region":"14","population":null,"latitude":"47.8666667","longitude":"19.15"},"also-zsukma-erdoorhaz":{"city":"also-zsukma-erdoorhaz","accentcity":"Also-Zsukma-erdoorhaz","region":"14","population":null,"latitude":"47.8666667","longitude":"19.15"},"alsozsukma-puszta":{"city":"alsozsukma-puszta","accentcity":"Alsózsukma-puszta","region":"14","population":null,"latitude":"47.8666667","longitude":"19.15"},"alsozsunypuszta":{"city":"alsozsunypuszta","accentcity":"Alsózsúnypuszta","region":"14","population":null,"latitude":"48.0","longitude":"19.6333333"},"alszopor":{"city":"alszopor","accentcity":"Alszopor","region":"09","population":null,"latitude":"47.45","longitude":"16.8166667"},"altany":{"city":"altany","accentcity":"Áltány","region":"16","population":null,"latitude":"47.7833333","longitude":"19.1333333"},"altarobanyatelep":{"city":"altarobanyatelep","accentcity":"Altáróbányatelep","region":"12","population":null,"latitude":"47.7333333","longitude":"18.7"},"altenburg":{"city":"altenburg","accentcity":"Altenburg","region":"09","population":null,"latitude":"47.8666667","longitude":"17.2833333"},"altontanya":{"city":"altontanya","accentcity":"Altontanya","region":"02","population":null,"latitude":"45.8166667","longitude":"18.0333333"},"alt-sankt-iwan":{"city":"alt-sankt-iwan","accentcity":"Alt-Sankt-Iwan","region":"06","population":null,"latitude":"46.1666667","longitude":"20.1666667"},"aluminiumercbanyatelep":{"city":"aluminiumercbanyatelep","accentcity":"Alumíniumércbányatelep","region":"08","population":null,"latitude":"47.3666667","longitude":"18.3833333"},"alvegi tanya":{"city":"alvegi tanya","accentcity":"Alvégi Tanya","region":"08","population":null,"latitude":"47.0833333","longitude":"18.4166667"},"amaliapuszta":{"city":"amaliapuszta","accentcity":"Amáliapuszta","region":"17","population":null,"latitude":"46.7833333","longitude":"17.9166667"},"amaliatelep":{"city":"amaliatelep","accentcity":"Amáliatelep","region":"14","population":null,"latitude":"48.1","longitude":"19.7333333"},"amand":{"city":"amand","accentcity":"Ámánd","region":"09","population":null,"latitude":"47.55","longitude":"17.75"},"ambrozfalva":{"city":"ambrozfalva","accentcity":"Ambrózfalva","region":"06","population":null,"latitude":"46.35","longitude":"20.7333333"},"ambrozfalvi tanyak":{"city":"ambrozfalvi tanyak","accentcity":"Ambrózfalvi Tanyák","region":"06","population":null,"latitude":"46.35","longitude":"20.7333333"},"ambrustanya":{"city":"ambrustanya","accentcity":"Ambrustanya","region":"23","population":null,"latitude":"47.1333333","longitude":"17.75"},"amerikaipuszta":{"city":"amerikaipuszta","accentcity":"Amerikaipuszta","region":"09","population":null,"latitude":"47.5666667","longitude":"17.4166667"},"amerikapuszta":{"city":"amerikapuszta","accentcity":"Amerikapuszta","region":"09","population":null,"latitude":"47.5666667","longitude":"17.4166667"},"anarcs":{"city":"anarcs","accentcity":"Anarcs","region":"18","population":"2021","latitude":"48.1833333","longitude":"22.1166667"},"anasztaziapuszta":{"city":"anasztaziapuszta","accentcity":"Anasztáziapuszta","region":"16","population":null,"latitude":"47.35","longitude":"18.85"},"andahaza":{"city":"andahaza","accentcity":"Andaháza","region":"18","population":null,"latitude":"47.9333333","longitude":"22.15"},"andahazapuszta":{"city":"andahazapuszta","accentcity":"Andaházapuszta","region":"10","population":null,"latitude":"47.2666667","longitude":"21.4333333"},"andocs":{"city":"andocs","accentcity":"Andocs","region":"17","population":null,"latitude":"46.65","longitude":"17.9333333"},"andorhaza":{"city":"andorhaza","accentcity":"Andorháza","region":"20","population":null,"latitude":"46.9","longitude":"20.1666667"},"andorhazamajor":{"city":"andorhazamajor","accentcity":"Andorházamajor","region":"24","population":null,"latitude":"46.7166667","longitude":"17.05"},"andormajor":{"city":"andormajor","accentcity":"Andormajor","region":"21","population":null,"latitude":"46.4","longitude":"18.5666667"},"andornaktalya":{"city":"andornaktalya","accentcity":"Andornaktálya","region":"11","population":"2636","latitude":"47.85","longitude":"20.4166667"},"andrasfa":{"city":"andrasfa","accentcity":"Andrásfa","region":"22","population":null,"latitude":"46.9666667","longitude":"16.8"},"andrashaza":{"city":"andrashaza","accentcity":"Andrásháza","region":"10","population":null,"latitude":"47.6166667","longitude":"21.4"},"andrashida":{"city":"andrashida","accentcity":"Andráshida","region":"24","population":null,"latitude":"46.8666667","longitude":"16.8"},"andrasitelek":{"city":"andrasitelek","accentcity":"Andrásitelek","region":"10","population":null,"latitude":"47.6166667","longitude":"21.35"},"andraspuszta":{"city":"andraspuszta","accentcity":"Andráspuszta","region":"21","population":null,"latitude":"46.75","longitude":"18.9166667"},"andrasszallas":{"city":"andrasszallas","accentcity":"Andrásszállás","region":"01","population":null,"latitude":"46.6","longitude":"19.0833333"},"andrastanya":{"city":"andrastanya","accentcity":"Andrástanya","region":"22","population":null,"latitude":"47.1333333","longitude":"16.5833333"},"andrekakert":{"city":"andrekakert","accentcity":"Andrékakert","region":"12","population":null,"latitude":"47.75","longitude":"18.5"},"andretanya":{"city":"andretanya","accentcity":"Andrétanya","region":"11","population":null,"latitude":"47.6833333","longitude":"19.7833333"},"angelamajor":{"city":"angelamajor","accentcity":"Angelamajor","region":"24","population":null,"latitude":"46.95","longitude":"16.9"},"anghely":{"city":"anghely","accentcity":"Ánghely","region":"09","population":null,"latitude":"47.55","longitude":"17.4166667"},"angilus":{"city":"angilus","accentcity":"Angilus","region":"20","population":null,"latitude":"47.2166667","longitude":"20.7666667"},"angyaldomb":{"city":"angyaldomb","accentcity":"Angyaldomb","region":"21","population":null,"latitude":"46.3833333","longitude":"18.5666667"},"angyalfold":{"city":"angyalfold","accentcity":"Angyalföld","region":"05","population":null,"latitude":"47.5333333","longitude":"19.0666667"},"angyalisziget":{"city":"angyalisziget","accentcity":"Angyalisziget","region":"16","population":null,"latitude":"47.1666667","longitude":"18.95"},"angyaloc":{"city":"angyaloc","accentcity":"Angyalóc","region":"02","population":null,"latitude":"45.8666667","longitude":"17.9833333"},"angyalossytanya":{"city":"angyalossytanya","accentcity":"Angyalossytanya","region":"18","population":null,"latitude":"48.0","longitude":"22.8166667"},"angyalostanya":{"city":"angyalostanya","accentcity":"Angyalostanya","region":"04","population":null,"latitude":"47.7","longitude":"20.85"},"angyalosytanya":{"city":"angyalosytanya","accentcity":"Angyalosytanya","region":"18","population":null,"latitude":"48.0","longitude":"22.8166667"},"angyaltanya":{"city":"angyaltanya","accentcity":"Angyaltanya","region":"09","population":null,"latitude":"47.65","longitude":"17.3"},"annafurdo":{"city":"annafurdo","accentcity":"Annafurdo","region":"21","population":null,"latitude":"46.3833333","longitude":"18.3666667"},"annahegy":{"city":"annahegy","accentcity":"Annahegy","region":"21","population":null,"latitude":"46.8","longitude":"18.9166667"},"annakert":{"city":"annakert","accentcity":"Annakert","region":"18","population":null,"latitude":"47.8666667","longitude":"21.85"},"annaliget":{"city":"annaliget","accentcity":"Annaliget","region":"03","population":null,"latitude":"46.8666667","longitude":"20.5333333"},"annamajor":{"city":"annamajor","accentcity":"Annamajor","region":"24","population":null,"latitude":"46.4333333","longitude":"16.7833333"},"anna-major":{"city":"anna-major","accentcity":"Anna-major","region":"08","population":null,"latitude":"47.25","longitude":"18.75"},"annatanya":{"city":"annatanya","accentcity":"Annatanya","region":"16","population":null,"latitude":"47.7833333","longitude":"19.1333333"},"annavolgy":{"city":"annavolgy","accentcity":"Annavölgy","region":"17","population":null,"latitude":"47.7","longitude":"18.6666667"},"annavolgyibanya":{"city":"annavolgyibanya","accentcity":"Annavölgyibánya","region":"12","population":null,"latitude":"47.7","longitude":"18.6833333"},"annustanya":{"city":"annustanya","accentcity":"Annustanya","region":"16","population":null,"latitude":"47.3","longitude":"19.85"},"anos":{"city":"anos","accentcity":"Ános","region":"02","population":null,"latitude":"45.8","longitude":"18.2333333"},"antalbokor":{"city":"antalbokor","accentcity":"Antalbokor","region":"18","population":null,"latitude":"47.9666667","longitude":"21.65"},"antalfaimajor":{"city":"antalfaimajor","accentcity":"Antalfaimajor","region":"23","population":null,"latitude":"47.25","longitude":"17.3166667"},"antalfalutelep":{"city":"antalfalutelep","accentcity":"Antalfalutelep","region":"02","population":null,"latitude":"46.15","longitude":"17.7833333"},"antalfopuszta":{"city":"antalfopuszta","accentcity":"Antalfopuszta","region":"23","population":null,"latitude":"47.3833333","longitude":"17.4166667"},"antalhegy":{"city":"antalhegy","accentcity":"Antalhegy","region":"24","population":null,"latitude":"46.55","longitude":"17.05"},"antallapos":{"city":"antallapos","accentcity":"Antallapos","region":"01","population":null,"latitude":"46.3","longitude":"19.2"},"antalmajor":{"city":"antalmajor","accentcity":"Antalmajor","region":"17","population":null,"latitude":"46.4666667","longitude":"17.8333333"},"antalpuszta":{"city":"antalpuszta","accentcity":"Antalpuszta","region":"17","population":null,"latitude":"45.9666667","longitude":"17.4666667"},"antalszallas":{"city":"antalszallas","accentcity":"Antalszállás","region":"17","population":null,"latitude":"46.2","longitude":"17.8333333"},"antaltanya":{"city":"antaltanya","accentcity":"Antaltanya","region":"16","population":null,"latitude":"47.1833333","longitude":"19.3166667"},"antfai-major":{"city":"antfai-major","accentcity":"Antfai-major","region":"23","population":null,"latitude":"47.25","longitude":"17.3166667"},"antoniamajor":{"city":"antoniamajor","accentcity":"Antóniamajor","region":"22","population":null,"latitude":"47.2333333","longitude":"16.9166667"},"antos-tanya":{"city":"antos-tanya","accentcity":"Antós-tanya","region":"16","population":null,"latitude":"47.1833333","longitude":"20.0666667"},"anyacsa":{"city":"anyacsa","accentcity":"Anyácsa","region":"16","population":null,"latitude":"47.5833333","longitude":"18.7166667"},"anyas":{"city":"anyas","accentcity":"Ányás","region":"06","population":null,"latitude":"46.5","longitude":"20.1666667"},"apacapuszta":{"city":"apacapuszta","accentcity":"Apácapuszta","region":"14","population":null,"latitude":"48.05","longitude":"19.5833333"},"apacatorna":{"city":"apacatorna","accentcity":"Apácatorna","region":"23","population":null,"latitude":"47.1166667","longitude":"17.3"},"apaczatorna":{"city":"apaczatorna","accentcity":"Apáczatorna","region":"23","population":null,"latitude":"47.1166667","longitude":"17.3"},"apafa":{"city":"apafa","accentcity":"Apafa","region":"07","population":null,"latitude":"47.5833333","longitude":"21.6666667"},"apafaja":{"city":"apafaja","accentcity":"Apafája","region":"07","population":null,"latitude":"47.5833333","longitude":"21.6666667"},"apagy":{"city":"apagy","accentcity":"Apagy","region":"18","population":"2348","latitude":"47.9666667","longitude":"21.9333333"},"apagyuti hazak":{"city":"apagyuti hazak","accentcity":"Apagyúti Házak","region":"18","population":null,"latitude":"47.9333333","longitude":"21.8666667"},"apaj":{"city":"apaj","accentcity":"Apaj","region":"16","population":null,"latitude":"47.1166667","longitude":"19.1"},"aparhant":{"city":"aparhant","accentcity":"Aparhant","region":"21","population":null,"latitude":"46.3333333","longitude":"18.45"},"apatfa":{"city":"apatfa","accentcity":"Apátfa","region":"24","population":null,"latitude":"46.8666667","longitude":"16.8"},"apatfalva":{"city":"apatfalva","accentcity":"Apátfalva","region":"06","population":"3268","latitude":"46.1666667","longitude":"20.5833333"},"apati":{"city":"apati","accentcity":"Apáti","region":"03","population":null,"latitude":"46.5666667","longitude":"21.1166667"},"apatipuszta":{"city":"apatipuszta","accentcity":"Apátipuszta","region":"22","population":null,"latitude":"47.3166667","longitude":"17.2333333"},"apati puszta":{"city":"apati puszta","accentcity":"Apáti Puszta","region":"24","population":null,"latitude":"46.7666667","longitude":"16.6166667"},"apatistvanfalva":{"city":"apatistvanfalva","accentcity":"Apátistvánfalva","region":"22","population":null,"latitude":"46.9005556","longitude":"16.2647222"},"apatsziget":{"city":"apatsziget","accentcity":"Apátsziget","region":"10","population":null,"latitude":"47.0166667","longitude":"21.5"},"apatvarasd":{"city":"apatvarasd","accentcity":"Apátvarasd","region":"02","population":null,"latitude":"46.1833333","longitude":"18.4833333"},"apatvarasdtelep":{"city":"apatvarasdtelep","accentcity":"Apátvarasdtelep","region":"02","population":null,"latitude":"46.2","longitude":"18.4666667"},"apc":{"city":"apc","accentcity":"Apc","region":"11","population":"2754","latitude":"47.8","longitude":"19.7"},"aporhaza":{"city":"aporhaza","accentcity":"Aporhaza","region":"18","population":null,"latitude":"47.7666667","longitude":"22.2833333"},"aporka":{"city":"aporka","accentcity":"Áporka","region":"16","population":null,"latitude":"47.2333333","longitude":"19.0166667"},"aporkaitanya":{"city":"aporkaitanya","accentcity":"Áporkaitanya","region":"16","population":null,"latitude":"47.1333333","longitude":"19.1833333"},"aporkai tanyak":{"city":"aporkai tanyak","accentcity":"Áporkai Tanyák","region":"16","population":null,"latitude":"47.2333333","longitude":"19.0166667"},"aporkai urbo-tanya":{"city":"aporkai urbo-tanya","accentcity":"Aporkai Urbo-tanya","region":"16","population":null,"latitude":"47.1333333","longitude":"19.1833333"},"aporliget":{"city":"aporliget","accentcity":"Aporliget","region":"18","population":null,"latitude":"47.7666667","longitude":"22.2833333"},"apostag":{"city":"apostag","accentcity":"Apostag","region":"01","population":"2099","latitude":"46.8833333","longitude":"18.95"},"apostagi tanyak":{"city":"apostagi tanyak","accentcity":"Apostagi Tanyák","region":"01","population":null,"latitude":"46.8833333","longitude":"18.95"},"apponyi foldek":{"city":"apponyi foldek","accentcity":"Apponyi Földek","region":"03","population":null,"latitude":"46.75","longitude":"20.85"},"apponyifolditanyak":{"city":"apponyifolditanyak","accentcity":"Apponyifölditanyák","region":"03","population":null,"latitude":"46.75","longitude":"20.85"},"aprobel":{"city":"aprobel","accentcity":"Apróbél","region":"23","population":null,"latitude":"47.1166667","longitude":"17.7333333"},"aprohomok":{"city":"aprohomok","accentcity":"Apróhomok","region":"04","population":null,"latitude":"48.2666667","longitude":"21.6"},"apronyarfas":{"city":"apronyarfas","accentcity":"Aprónyárfás","region":"04","population":null,"latitude":"48.3166667","longitude":"21.5833333"},"apsamajor":{"city":"apsamajor","accentcity":"Apsamajor","region":"24","population":null,"latitude":"46.9833333","longitude":"17.15"},"aradpuszta":{"city":"aradpuszta","accentcity":"Aradpuszta","region":"17","population":null,"latitude":"46.45","longitude":"17.3833333"},"aradvanypuszta":{"city":"aradvanypuszta","accentcity":"Aradványpuszta","region":"10","population":null,"latitude":"47.6666667","longitude":"21.85"},"arak":{"city":"arak","accentcity":"Arak","region":"09","population":null,"latitude":"47.8666667","longitude":"17.3833333"},"aranga":{"city":"aranga","accentcity":"Aranga","region":"21","population":null,"latitude":"46.1333333","longitude":"18.7833333"},"arankamajor":{"city":"arankamajor","accentcity":"Arankamajor","region":"09","population":null,"latitude":"47.7","longitude":"17.4"},"aranyag":{"city":"aranyag","accentcity":"Aranyág","region":"06","population":null,"latitude":"46.4166667","longitude":"20.3333333"},"aranyegyhaza":{"city":"aranyegyhaza","accentcity":"Aranyegyháza","region":"01","population":null,"latitude":"46.9166667","longitude":"19.2666667"},"aranyhegy":{"city":"aranyhegy","accentcity":"Aranyhegy","region":"24","population":null,"latitude":"46.6","longitude":"17.05"},"aranykert":{"city":"aranykert","accentcity":"Aranykert","region":"20","population":null,"latitude":"46.9833333","longitude":"20.25"},"aranyod":{"city":"aranyod","accentcity":"Aranyod","region":"24","population":null,"latitude":"46.95","longitude":"17.0666667"},"aranyosapati":{"city":"aranyosapati","accentcity":"Aranyosapáti","region":"18","population":"2142","latitude":"48.2","longitude":"22.2666667"},"aranyosapati tanya":{"city":"aranyosapati tanya","accentcity":"Aranyosapáti Tanya","region":"18","population":null,"latitude":"48.2","longitude":"22.2666667"},"aranyos":{"city":"aranyos","accentcity":"Aranyos","region":"20","population":null,"latitude":"47.3166667","longitude":"20.9333333"},"aranyoscsarda":{"city":"aranyoscsarda","accentcity":"Aranyoscsárda","region":"10","population":null,"latitude":"47.3166667","longitude":"21.3166667"},"aranyosd":{"city":"aranyosd","accentcity":"Aranyosd","region":"01","population":null,"latitude":"46.8166667","longitude":"20.0"},"aranyosdomb":{"city":"aranyosdomb","accentcity":"Aranyosdomb","region":"09","population":null,"latitude":"47.65","longitude":"17.8666667"},"aranyosfurdo":{"city":"aranyosfurdo","accentcity":"Aranyosfurdo","region":"04","population":null,"latitude":"48.3","longitude":"21.3"},"aranyosgadany":{"city":"aranyosgadany","accentcity":"Aranyosgadány","region":"02","population":null,"latitude":"46.0","longitude":"18.1166667"},"aranyosi foldek":{"city":"aranyosi foldek","accentcity":"Aranyosi Földek","region":"17","population":null,"latitude":"45.9833333","longitude":"17.5166667"},"aranyosimajor":{"city":"aranyosimajor","accentcity":"Aranyosimajor","region":"09","population":null,"latitude":"47.4333333","longitude":"17.0833333"},"aranyosipuszta":{"city":"aranyosipuszta","accentcity":"Aranyosipuszta","region":"14","population":null,"latitude":"48.0666667","longitude":"19.8833333"},"aranyosi szollo":{"city":"aranyosi szollo","accentcity":"Aranyosi Szollo","region":"16","population":null,"latitude":"47.3666667","longitude":"19.7"},"aranyosi szollotelep":{"city":"aranyosi szollotelep","accentcity":"Aranyosi Szollotelep","region":"18","population":null,"latitude":"47.9166667","longitude":"21.8666667"},"aranyosi tanya":{"city":"aranyosi tanya","accentcity":"Aranyosi Tanya","region":"11","population":null,"latitude":"47.7166667","longitude":"19.95"},"aranyoskastely":{"city":"aranyoskastely","accentcity":"Aranyoskastély","region":"17","population":null,"latitude":"45.9666667","longitude":"17.4666667"},"aranyosmajor":{"city":"aranyosmajor","accentcity":"Aranyosmajor","region":"09","population":null,"latitude":"47.4333333","longitude":"17.0833333"},"aranyos-puszta":{"city":"aranyos-puszta","accentcity":"Aranyos-puszta","region":"14","population":null,"latitude":"48.0666667","longitude":"19.8833333"},"aranyospuszta":{"city":"aranyospuszta","accentcity":"Aranyospuszta","region":"20","population":null,"latitude":"47.3833333","longitude":"20.6833333"},"aranyossziget":{"city":"aranyossziget","accentcity":"Aranyossziget","region":"09","population":null,"latitude":"47.8666667","longitude":"17.3166667"},"aranyostanya":{"city":"aranyostanya","accentcity":"Aranyostanya","region":"18","population":null,"latitude":"47.7333333","longitude":"21.75"},"aranysziget":{"city":"aranysziget","accentcity":"Aranysziget","region":"06","population":null,"latitude":"46.7166667","longitude":"20.15"},"aranyto":{"city":"aranyto","accentcity":"Aranytó","region":"21","population":null,"latitude":"46.35","longitude":"18.7"},"aranytotanya":{"city":"aranytotanya","accentcity":"Aranytótanya","region":"04","population":null,"latitude":"48.3333333","longitude":"21.75"},"arboz":{"city":"arboz","accentcity":"Árboz","region":"16","population":null,"latitude":"47.0333333","longitude":"19.8833333"},"ardapuszta":{"city":"ardapuszta","accentcity":"Ardapuszta","region":"23","population":null,"latitude":"47.2166667","longitude":"17.6"},"ardics":{"city":"ardics","accentcity":"Árdics","region":"06","population":null,"latitude":"46.2166667","longitude":"20.4833333"},"arendadulo":{"city":"arendadulo","accentcity":"Arendadulo","region":"20","population":null,"latitude":"47.6","longitude":"19.8666667"},"arka":{"city":"arka","accentcity":"Arka","region":"04","population":null,"latitude":"48.35","longitude":"21.25"},"arkai tanyak":{"city":"arkai tanyak","accentcity":"Arkai Tanyák","region":"20","population":null,"latitude":"47.4666667","longitude":"20.2166667"},"arkipuszta":{"city":"arkipuszta","accentcity":"Árkipuszta","region":"08","population":null,"latitude":"47.4","longitude":"18.2333333"},"arkitanya":{"city":"arkitanya","accentcity":"Árkitanya","region":"08","population":null,"latitude":"46.95","longitude":"18.4833333"},"arkoshazapuszta":{"city":"arkoshazapuszta","accentcity":"Árkosházapuszta","region":"24","population":null,"latitude":"46.8333333","longitude":"16.7666667"},"arkusdulo":{"city":"arkusdulo","accentcity":"Arkusdulo","region":"01","population":null,"latitude":"46.95","longitude":"20.05"},"arkussziget-major":{"city":"arkussziget-major","accentcity":"Arkussziget-major","region":"03","population":null,"latitude":"46.95","longitude":"21.0"},"arlo":{"city":"arlo","accentcity":"Arló","region":"04","population":"4129","latitude":"48.1833333","longitude":"20.2666667"},"arminakna":{"city":"arminakna","accentcity":"Árminakna","region":"23","population":null,"latitude":"47.0833333","longitude":"17.6"},"arnot":{"city":"arnot","accentcity":"Arnót","region":"04","population":"2493","latitude":"48.1333333","longitude":"20.8666667"},"arnyekvolgypuszta":{"city":"arnyekvolgypuszta","accentcity":"Árnyékvölgypuszta","region":"14","population":null,"latitude":"48.0166667","longitude":"19.5"},"arokalja":{"city":"arokalja","accentcity":"Árokalja","region":"18","population":null,"latitude":"47.8666667","longitude":"22.6833333"},"arokhatimajor":{"city":"arokhatimajor","accentcity":"Árokhátimajor","region":"04","population":null,"latitude":"47.3833333","longitude":"17.0333333"},"arokospuszta":{"city":"arokospuszta","accentcity":"Árokospuszta","region":"03","population":null,"latitude":"46.3166667","longitude":"20.8166667"},"arokto":{"city":"arokto","accentcity":"Arokto","region":"04","population":null,"latitude":"47.7333333","longitude":"20.95"},"arpad":{"city":"arpad","accentcity":"Árpád","region":"06","population":null,"latitude":"46.3380556","longitude":"19.8519444"},"arpadhalom":{"city":"arpadhalom","accentcity":"Árpádhalom","region":"06","population":null,"latitude":"46.6166667","longitude":"20.55"},"arpadhalommajor":{"city":"arpadhalommajor","accentcity":"Arpádhalommajor","region":"06","population":null,"latitude":"46.6166667","longitude":"20.55"},"arpadhaza-telep":{"city":"arpadhaza-telep","accentcity":"Árpádháza-telep","region":"23","population":null,"latitude":"47.3","longitude":"17.2833333"},"arpadmajor":{"city":"arpadmajor","accentcity":"Árpádmajor","region":"23","population":null,"latitude":"47.05","longitude":"18.1833333"},"arpadszallas":{"city":"arpadszallas","accentcity":"Árpádszállás","region":"01","population":null,"latitude":"46.8666667","longitude":"20.0"},"arpadtanya":{"city":"arpadtanya","accentcity":"Árpádtanya","region":"04","population":null,"latitude":"47.9666667","longitude":"20.6166667"},"arpadtelep":{"city":"arpadtelep","accentcity":"Árpádtelep","region":"23","population":null,"latitude":"47.3","longitude":"17.2833333"},"arpadtelepi tanyak":{"city":"arpadtelepi tanyak","accentcity":"Árpádtelepi Tanyák","region":"06","population":null,"latitude":"46.5833333","longitude":"20.5"},"arpadteto":{"city":"arpadteto","accentcity":"Arpadteto","region":"02","population":null,"latitude":"46.1666667","longitude":"18.25"},"arpas":{"city":"arpas","accentcity":"Árpás","region":"09","population":null,"latitude":"47.5166667","longitude":"17.4"},"arpasi tanyak":{"city":"arpasi tanyak","accentcity":"Árpási Tanyák","region":"04","population":null,"latitude":"48.2833333","longitude":"21.7333333"},"arpastanya":{"city":"arpastanya","accentcity":"Árpástanya","region":"04","population":null,"latitude":"48.2833333","longitude":"21.7333333"},"artand":{"city":"artand","accentcity":"Ártánd","region":"10","population":null,"latitude":"47.1166667","longitude":"21.7666667"},"artanhazapuszta":{"city":"artanhazapuszta","accentcity":"Ártánházapuszta","region":"10","population":null,"latitude":"47.6166667","longitude":"21.95"},"arvai janos-tanya":{"city":"arvai janos-tanya","accentcity":"Árvai János-tanya","region":"04","population":null,"latitude":"48.15","longitude":"21.0"},"arvaitanya":{"city":"arvaitanya","accentcity":"Árvaitanya","region":"06","population":null,"latitude":"48.2","longitude":"20.9333333"},"asca":{"city":"asca","accentcity":"Asca","region":"16","population":null,"latitude":"47.8","longitude":"19.3833333"},"asito":{"city":"asito","accentcity":"Ásító","region":"13","population":null,"latitude":"48.1333333","longitude":"20.7"},"asotthalom":{"city":"asotthalom","accentcity":"Ásotthalom","region":"06","population":"4134","latitude":"46.2005556","longitude":"19.7905556"},"asszonyfa":{"city":"asszonyfa","accentcity":"Asszonyfa","region":"23","population":null,"latitude":"47.3333333","longitude":"17.4"},"asszonyreszpuszta":{"city":"asszonyreszpuszta","accentcity":"Asszonyrészpuszta","region":"10","population":null,"latitude":"47.6333333","longitude":"21.95"},"asszonyszallas":{"city":"asszonyszallas","accentcity":"Asszonyszállás","region":"20","population":null,"latitude":"47.3166667","longitude":"20.9333333"},"asszonyvar":{"city":"asszonyvar","accentcity":"Asszonyvár","region":"24","population":null,"latitude":"46.3333333","longitude":"16.95"},"asszonyvari":{"city":"asszonyvari","accentcity":"Asszonyvári","region":"17","population":null,"latitude":"46.3","longitude":"16.9"},"asszonyvariszollo":{"city":"asszonyvariszollo","accentcity":"Asszonyvariszollo","region":"24","population":null,"latitude":"46.3333333","longitude":"16.95"},"asszonyvariszolo":{"city":"asszonyvariszolo","accentcity":"Asszonyvariszolo","region":"24","population":null,"latitude":"46.3333333","longitude":"16.95"},"asszuvolgyimajor":{"city":"asszuvolgyimajor","accentcity":"Asszúvölgyimajor","region":"24","population":null,"latitude":"46.7","longitude":"16.75"},"asvany":{"city":"asvany","accentcity":"Ásvány","region":"21","population":null,"latitude":"47.3666667","longitude":"20.6333333"},"asvanyhat":{"city":"asvanyhat","accentcity":"Ásványhát","region":"06","population":null,"latitude":"46.2666667","longitude":"20.2166667"},"asvanyhattanya":{"city":"asvanyhattanya","accentcity":"Ásványháttanya","region":"06","population":null,"latitude":"46.2666667","longitude":"20.2166667"},"asvany-kut":{"city":"asvany-kut","accentcity":"Ásvány-kút","region":"10","population":null,"latitude":"47.15","longitude":"21.4666667"},"asvanyraro":{"city":"asvanyraro","accentcity":"Ásványráró","region":"09","population":"1985","latitude":"47.8333333","longitude":"17.5"},"aszalo":{"city":"aszalo","accentcity":"Aszaló","region":"04","population":"2008","latitude":"48.2166667","longitude":"20.9666667"},"aszaloi kistanya":{"city":"aszaloi kistanya","accentcity":"Aszalói Kistanya","region":"04","population":null,"latitude":"48.2333333","longitude":"21.0"},"aszaloi nagytanya":{"city":"aszaloi nagytanya","accentcity":"Aszalói Nagytanya","region":"04","population":null,"latitude":"48.25","longitude":"20.9666667"},